68

ArduCopter V3.1.5 (3c57e771)
Free RAM: 982
APM 2
FMT, 128, 89, FMT, BBnNZ, Type,Length,Name,Format
FMT, 129, 23, PARM, Nf, Name,Value
FMT, 130, 45, GPS, BIHBcLLeeEefI, Status,TimeMS,Week,NSats,HDop,Lat,Lng,RelAlt,Alt,Spd,GCrs,VZ,T
FMT, 131, 31, IMU, Iffffff, TimeMS,GyrX,GyrY,GyrZ,AccX,AccY,AccZ
FMT, 132, 67, MSG, Z, Message
FMT, 25, 25, ATUN, BBfffff, Axis,TuneStep,RateMin,RateMax,RPGain,RDGain,SPGain
FMT, 26, 9, ATDE, cf, Angle,Rate
FMT, 9, 19, CURR, hIhhhf, ThrOut,ThrInt,Volt,Curr,Vcc,CurrTot
FMT, 11, 11, MOT, hhhh, Mot1,Mot2,Mot3,Mot4
FMT, 12, 28, OF, hhBccffee, Dx,Dy,SQual,X,Y,Lat,Lng,Roll,Pitch
FMT, 5, 49, NTUN, Ecffffffffee, WPDst,WPBrg,PErX,PErY,DVelX,DVelY,VelX,VelY,DAcX,DAcY,DRol,DPit
FMT, 4, 25, CTUN, hcefchhhh, ThrIn,SonAlt,BarAlt,WPAlt,DesSonAlt,AngBst,CRate,ThrOut,DCRate
FMT, 15, 21, MAG, hhhhhhhhh, MagX,MagY,MagZ,OfsX,OfsY,OfsZ,MOfsX,MOfsY,MOfsZ
FMT, 6, 19, PM, BBHHIhBHB, RenCnt,RenBlw,NLon,NLoop,MaxT,PMT,I2CErr,INSErr,INAVErr
FMT, 8, 20, CMD, BBBBBeLL, CTot,CNum,CId,COpt,Prm1,Alt,Lat,Lng
FMT, 1, 17, ATT, cccccCC, RollIn,Roll,PitchIn,Pitch,YawIn,Yaw,NavYaw
FMT, 17, 37, INAV, cccfffiiff, BAlt,IAlt,IClb,ACorrX,ACorrY,ACorrZ,GLat,GLng,ILat,ILng
FMT, 3, 6, MODE, Mh, Mode,ThrCrs
FMT, 10, 3, STRT, , 
FMT, 13, 4, EV, B, Id
FMT, 20, 6, D16, Bh, Id,Value
FMT, 21, 6, DU16, BH, Id,Value
FMT, 22, 8, D32, Bi, Id,Value
FMT, 23, 8, DU32, BI, Id,Value
FMT, 24, 8, DFLT, Bf, Id,Value
FMT, 14, 28, PID, Biiiiif, Id,Error,P,I,D,Out,Gain
FMT, 18, 27, CAM, IHLLeccC, GPSTime,GPSWeek,Lat,Lng,Alt,Roll,Pitch,Yaw
FMT, 19, 5, ERR, BB, Subsys,ECode
MSG, ArduCopter V3.1.5 (3c57e771)
MODE, STABILIZE, 626
D32, 9, 20528
CMD, 1, 0, 16, 0, 0, 0.00, 40.4435429, -79.9429591
EV, 10
GPS, 3, 327139400, 1796, 10, 1.79, 40.4435430, -79.9429591, 0.67, 287.99, 0.01, 37.64, 0.060000, 55222
CTUN, 0, 0.00, 0.00, 0.000000, 0.00, 0, 0, 0, 0
ATT, 0.00, 0.54, -1.05, 2.20, 0.00, 205.28, 205.28
CTUN, 0, 0.00, -0.03, 0.000000, 0.00, 0, 0, 0, 0
ATT, 0.00, 0.60, -1.05, 2.23, 0.00, 205.27, 205.27
GPS, 3, 327146800, 1796, 10, 1.79, 40.4435447, -79.9429555, 0.64, 287.99, 0.02, 37.64, 0.110000, 55401
CTUN, 0, 0.00, -0.02, 0.000000, 0.00, 0, 0, 0, 0
ATT, 0.00, 0.67, -0.84, 2.26, 0.00, 205.27, 205.27
CTUN, 0, 0.00, 0.04, 0.000000, 0.00, 0, 0, 0, 0
ATT, 0.00, 0.66, -1.05, 2.27, 0.00, 205.26, 205.26
GPS, 3, 327147000, 1796, 10, 1.79, 40.4435448, -79.9429553, 0.55, 287.99, 0.02, 37.64, 0.080000, 55621
CTUN, 0, 0.00, 0.06, 0.000000, 0.00, 0, -1, 0, 0
ATT, 0.00, 0.66, -1.16, 2.29, 0.00, 205.26, 205.26
CTUN, 0, 0.00, 0.09, 0.000000, 0.00, 0, -2, 0, 0
ATT, 0.00, 0.66, -0.95, 2.30, 0.00, 205.26, 205.26
DU32, 7, 272985
CURR, 0, 0, 1144, 2058, 5120, 227.4227
PM, 0, 0, 1, 1000, 7373287, 0, 0, 0, 0
GPS, 3, 327147200, 1796, 10, 1.79, 40.4435449, -79.9429552, 0.49, 287.98, 0.01, 37.64, 0.070000, 55821
CTUN, 0, 0.00, 0.02, 0.000000, 0.00, 0, -2, 0, 0
ATT, 0.00, 0.66, -1.16, 2.30, 0.00, 205.25, 205.25
CTUN, 0, 0.00, 0.03, 0.000000, 0.00, 0, -3, 0, 0
ATT, 0.00, 0.66, -0.95, 2.30, 12.61, 205.25, 205.25
GPS, 3, 327147400, 1796, 10, 1.79, 40.4435450, -79.9429551, 0.43, 287.98, 0.02, 37.64, 0.080000, 56022
CTUN, 0, 0.00, 0.02, 0.000000, 0.00, 0, -3, 0, 0
ATT, 0.00, 0.67, -0.95, 2.31, 41.15, 205.24, 205.24
CTUN, 0, 0.00, 0.15, 0.000000, 0.00, 0, -4, 0, 0
ATT, 0.00, 0.66, -0.95, 2.32, 44.73, 205.23, 205.23
GPS, 3, 327147600, 1796, 10, 1.79, 40.4435451, -79.9429550, 0.38, 287.97, 0.01, 37.64, 0.090000, 56221
CTUN, 0, 0.00, 0.02, 0.000000, 0.00, 0, -4, 0, 0
ATT, 0.00, 0.66, -1.80, 2.33, 44.73, 205.22, 205.22
CTUN, 0, 0.00, 0.04, 0.000000, 0.00, 0, -5, 0, 0
ATT, 0.00, 0.66, -1.80, 2.33, 44.73, 205.21, 205.21
GPS, 3, 327147800, 1796, 10, 1.79, 40.4435452, -79.9429549, 0.33, 287.97, 0.02, 37.64, 0.080000, 56421
CTUN, 0, 0.00, 0.03, 0.000000, 0.00, 0, -5, 0, 0
ATT, 0.00, 0.67, -0.95, 2.33, 45.00, 205.21, 205.21
CTUN, 0, 0.00, 0.12, 0.000000, 0.00, 0, -5, 0, 0
ATT, 0.00, 0.67, -0.74, 2.34, 44.73, 205.21, 205.21
GPS, 3, 327148000, 1796, 10, 1.79, 40.4435452, -79.9429548, 0.29, 287.97, 0.01, 37.64, 0.080000, 56622
CTUN, 0, 0.00, 0.01, 0.000000, 0.00, 0, -6, 0, 0
ATT, 0.00, 0.67, -0.74, 2.35, 44.86, 205.20, 205.20
CTUN, 0, 0.00, 0.04, 0.000000, 0.00, 0, -6, 0, 0
ATT, 0.00, 0.67, -0.95, 2.35, 44.73, 205.20, 205.20
DU32, 7, 272985
CURR, 0, 0, 1144, 2057, 5096, 233.1524
GPS, 3, 327148200, 1796, 10, 1.79, 40.4435453, -79.9429547, 0.25, 287.96, 0.02, 37.64, 0.070000, 56821
CTUN, 0, 0.00, 0.00, 0.000000, 0.00, 0, -6, 0, 0
ATT, 0.00, 0.66, -0.95, 2.35, 44.73, 205.20, 205.20
CTUN, 0, 0.00, 0.02, 0.000000, 0.00, 0, -7, 0, 0
ATT, 0.00, 0.66, -0.74, 2.36, 44.73, 205.20, 205.20
GPS, 3, 327148400, 1796, 10, 1.79, 40.4435454, -79.9429546, 0.20, 287.96, 0.02, 37.64, 0.060000, 57022
CTUN, 0, 0.00, -0.02, 0.000000, 0.00, 0, -7, 0, 0
ATT, 0.00, 0.67, -0.63, 2.37, 45.00, 205.19, 205.19
CTUN, 0, 0.00, -0.06, 0.000000, 0.00, 0, -7, 0, 0
ATT, 0.00, 0.67, -0.84, 2.38, 45.00, 205.19, 205.19
GPS, 3, 327148600, 1796, 10, 1.79, 40.4435455, -79.9429546, 0.16, 287.95, 0.00, 37.64, 0.080000, 57222
CTUN, 0, 0.00, 0.02, 0.000000, 0.00, 0, -8, 0, 0
ATT, 0.00, 0.67, -0.95, 2.38, 45.00, 205.19, 205.19
CTUN, 0, 0.00, 0.11, 0.000000, 0.00, 0, -8, 0, 0
ATT, 0.00, 0.67, -0.84, 2.38, 45.00, 205.19, 205.19
GPS, 3, 327148800, 1796, 10, 1.79, 40.4435456, -79.9429545, 0.13, 287.95, 0.02, 37.64, 0.090000, 57421
CTUN, 0, 0.00, 0.03, 0.000000, 0.00, 0, -8, 0, 0
ATT, 0.00, 0.67, -0.84, 2.38, 45.00, 205.19, 205.19
CTUN, 0, 0.00, 0.07, 0.000000, 0.00, 0, -8, 0, 0
ATT, 0.00, 0.67, -0.95, 2.39, 45.00, 205.19, 205.19
GPS, 3, 327149000, 1796, 10, 1.79, 40.4435457, -79.9429544, 0.10, 287.94, 0.02, 37.64, 0.080000, 57622
CTUN, 0, 0.00, 0.05, 0.000000, 0.00, 0, -8, 0, 0
ATT, 0.00, 0.68, -0.95, 2.40, 44.73, 205.19, 205.19
CTUN, 0, 0.00, -0.09, 0.000000, 0.00, 0, -9, 0, 0
ATT, 0.00, 0.68, -0.95, 2.41, 44.73, 205.19, 205.19
DU32, 7, 272985
CURR, 0, 0, 1141, 2055, 5120, 238.8840
GPS, 3, 327149200, 1796, 10, 1.79, 40.4435457, -79.9429544, 0.07, 287.94, 0.02, 37.64, 0.099999, 57822
CTUN, 0, 0.00, 0.03, 0.000000, 0.00, 0, -9, 0, 0
ATT, 0.00, 0.67, -0.95, 2.41, 44.86, 205.19, 205.19
CTUN, 0, 0.00, 0.11, 0.000000, 0.00, 0, -9, 0, 0
ATT, 0.00, 0.67, -0.95, 2.42, 44.86, 205.19, 205.19
GPS, 3, 327149400, 1796, 10, 1.79, 40.4435458, -79.9429543, 0.05, 287.94, 0.02, 37.64, 0.090000, 58022
CTUN, 0, 0.00, 0.16, 0.000000, 0.00, 0, -9, 0, 0
ATT, 0.00, 0.68, -0.74, 2.42, 44.86, 205.18, 205.18
CTUN, 0, 0.00, 0.02, 0.000000, 0.00, 0, -9, 0, 0
ATT, 0.00, 0.68, -0.95, 2.43, 45.00, 205.18, 205.18
GPS, 3, 327149600, 1796, 10, 1.79, 40.4435459, -79.9429543, 0.03, 287.94, 0.02, 37.64, 0.099999, 58221
CTUN, 0, 0.00, 0.08, 0.000000, 0.00, 0, -9, 0, 0
ATT, 0.00, 0.67, -0.84, 2.44, 44.73, 205.18, 205.18
CTUN, 0, 0.00, -0.02, 0.000000, 0.00, 0, -9, 0, 0
ATT, 0.00, 0.68, -0.95, 2.44, 44.86, 205.18, 205.18
GPS, 3, 327149800, 1796, 10, 1.79, 40.4435460, -79.9429542, 0.01, 287.94, 0.01, 37.64, 0.080000, 58421
CTUN, 0, 0.00, 0.13, 0.000000, 0.00, 0, -9, 0, 0
ATT, 0.00, 0.68, -0.84, 2.44, 44.86, 205.18, 205.18
CTUN, 0, 0.00, -0.03, 0.000000, 0.00, 0, -9, 0, 0
ATT, 0.00, 0.68, -0.63, 2.45, 44.86, 205.18, 205.18
CTUN, 0, 0.00, 0.06, 0.000000, 0.00, 0, -9, 0, 0
ATT, 0.00, 0.68, -0.84, 2.45, 44.86, 205.18, 205.18
GPS, 3, 327150000, 1796, 10, 1.79, 40.4435460, -79.9429542, 0.00, 287.94, 0.02, 37.64, 0.099999, 58641
CTUN, 0, 0.00, -0.01, 0.000000, 0.00, 0, -9, 0, 0
ATT, 0.00, 0.67, -1.05, 2.45, 44.86, 205.18, 205.18
DU32, 7, 272985
CURR, 0, 0, 1145, 2060, 5096, 244.6031
GPS, 3, 327150200, 1796, 10, 1.79, 40.4435461, -79.9429541, -0.01, 287.93, 0.02, 37.64, 0.080000, 58822
CTUN, 0, 0.00, 0.00, 0.000000, 0.00, 0, -9, 0, 0
ATT, 0.00, 0.68, -0.95, 2.46, 44.86, 205.18, 205.18
CTUN, 0, 0.00, -0.08, 0.000000, 0.00, 0, -9, 0, 0
ATT, 0.00, 0.68, -0.95, 2.46, 44.86, 205.18, 205.18
GPS, 3, 327150400, 1796, 10, 1.79, 40.4435462, -79.9429541, -0.04, 287.93, 0.01, 37.64, 0.050000, 59022
CTUN, 0, 0.00, -0.01, 0.000000, 0.00, 0, -9, 0, 0
ATT, 0.00, 0.68, -1.58, 2.46, 44.86, 205.18, 205.18
CTUN, 0, 0.00, -0.04, 0.000000, 0.00, 0, -9, 0, 0
ATT, 0.00, 0.68, -0.74, 2.46, 44.86, 205.18, 205.18
GPS, 3, 327150600, 1796, 10, 1.79, 40.4435463, -79.9429541, -0.06, 287.92, 0.02, 37.64, 0.090000, 59222
CTUN, 0, 0.00, -0.07, 0.000000, 0.00, 0, -9, 0, 0
ATT, 0.00, 0.68, -0.95, 2.47, 44.86, 205.17, 205.17
CTUN, 0, 0.00, -0.03, 0.000000, 0.00, 0, -10, 0, 0
ATT, 0.00, 0.68, -0.95, 2.47, 44.86, 205.16, 205.16
GPS, 3, 327150800, 1796, 10, 1.79, 40.4435463, -79.9429541, -0.08, 287.92, 0.01, 37.64, 0.080000, 59422
CTUN, 0, 0.00, 0.11, 0.000000, 0.00, 0, -9, 0, 0
ATT, 0.00, 0.68, -0.95, 2.48, 44.86, 205.17, 205.17
CTUN, 0, 0.00, -0.09, 0.000000, 0.00, 0, -9, 0, 0
ATT, 0.00, 0.67, -0.95, 2.48, 44.86, 205.17, 205.17
GPS, 3, 327151000, 1796, 10, 1.79, 40.4435464, -79.9429540, -0.09, 287.92, 0.02, 37.64, 0.090000, 59622
CTUN, 0, 0.00, 0.08, 0.000000, 0.00, 0, -9, 0, 0
ATT, 0.00, 0.67, -0.74, 2.48, 45.00, 205.17, 205.17
CTUN, 0, 0.00, -0.01, 0.000000, 0.00, 0, -9, 0, 0
ATT, 0.00, 0.67, -0.84, 2.49, 45.00, 205.17, 205.17
DU32, 7, 272985
CURR, 0, 0, 1149, 2067, 5096, 250.3286
CTUN, 0, 0.00, 0.00, 0.000000, 0.00, 0, -9, 0, 0
ATT, 0.00, 0.67, -0.84, 2.50, 44.86, 205.17, 205.17
GPS, 3, 327151200, 1796, 10, 1.79, 40.4435465, -79.9429540, -0.09, 287.91, 0.02, 37.64, 0.090000, 59842
CTUN, 0, 0.00, 0.10, 0.000000, 0.00, 0, -9, 0, 0
ATT, 0.00, 0.67, -0.63, 2.50, 44.86, 205.17, 205.17
GPS, 3, 327151400, 1796, 10, 1.79, 40.4435466, -79.9429540, -0.09, 287.90, 0.01, 37.64, 0.070000, 60022
CTUN, 0, 0.00, 0.13, 0.000000, 0.00, 0, -9, 0, 0
ATT, 0.00, 0.67, -0.95, 2.50, 44.86, 205.17, 205.17
CTUN, 0, 0.00, 0.00, 0.000000, 0.00, 0, -8, 0, 0
ATT, 0.00, 0.67, -0.95, 2.51, 45.00, 205.17, 205.17
GPS, 3, 327151600, 1796, 10, 1.79, 40.4435466, -79.9429540, -0.09, 287.90, 0.01, 37.64, 0.090000, 60222
CTUN, 0, 0.00, 0.14, 0.000000, 0.00, 0, -8, 0, 0
ATT, 0.00, 0.67, -0.95, 2.51, 45.00, 205.17, 205.17
CTUN, 0, 0.00, 0.13, 0.000000, 0.00, 0, -8, 0, 0
ATT, 0.00, 0.67, -0.95, 2.51, 44.60, 205.17, 205.17
GPS, 3, 327151800, 1796, 10, 1.79, 40.4435467, -79.9429540, -0.08, 287.89, 0.02, 37.64, 0.090000, 60422
CTUN, 0, 0.00, -0.06, 0.000000, 0.00, 0, -8, 0, 0
ATT, 0.00, 0.67, -0.74, 2.51, 44.86, 205.16, 205.16
CTUN, 0, 0.00, 0.02, 0.000000, 0.00, 0, -8, 0, 0
ATT, 0.00, 0.67, -0.95, 2.52, 44.86, 205.16, 205.16
GPS, 3, 327152000, 1796, 10, 1.79, 40.4435468, -79.9429539, -0.09, 287.89, 0.01, 37.64, 0.060000, 60622
CTUN, 0, 0.00, 0.02, 0.000000, 0.00, 0, -8, 0, 0
ATT, 0.00, 0.67, -1.05, 2.52, 44.86, 205.16, 205.16
CTUN, 0, 0.00, 0.10, 0.000000, 0.00, 0, -8, 0, 0
ATT, 0.00, 0.67, -0.95, 2.52, 44.86, 205.16, 205.16
DU32, 7, 272985
CURR, 0, 0, 1142, 2054, 5096, 256.0623
GPS, 3, 327152200, 1796, 10, 1.79, 40.4435469, -79.9429539, -0.09, 287.89, 0.02, 37.64, 0.080000, 60822
CTUN, 0, 0.00, 0.00, 0.000000, 0.00, 0, -7, 0, 0
ATT, 0.00, 0.67, -0.95, 2.52, 44.86, 205.16, 205.16
CTUN, 0, 0.00, 0.00, 0.000000, 0.00, 0, -7, 0, 0
ATT, 0.00, 0.67, -0.74, 2.53, 44.86, 205.16, 205.16
GPS, 3, 327152400, 1796, 10, 1.79, 40.4435470, -79.9429539, -0.10, 287.89, 0.02, 37.64, 0.090000, 61022
CTUN, 0, 0.00, 0.13, 0.000000, 0.00, 0, -7, 0, 0
ATT, 0.00, 0.67, -0.74, 2.54, 44.86, 205.17, 205.17
CTUN, 0, 0.00, 0.12, 0.000000, 0.00, 0, -7, 0, 0
ATT, 0.00, 0.68, -0.95, 2.54, 44.86, 205.17, 205.17
GPS, 3, 327152600, 1796, 10, 1.79, 40.4435471, -79.9429539, -0.08, 287.88, 0.02, 37.64, 0.090000, 61222
CTUN, 0, 0.00, 0.00, 0.000000, 0.00, 0, -7, 0, 0
ATT, 0.00, 0.68, -0.95, 2.54, 44.86, 205.17, 205.17
CTUN, 0, 0.00, -0.03, 0.000000, 0.00, 0, -6, 0, 0
ATT, 0.00, 0.68, -0.95, 2.54, 44.86, 205.17, 205.17
GPS, 3, 327152800, 1796, 10, 1.79, 40.4435472, -79.9429539, -0.09, 287.87, 0.02, 37.64, 0.070000, 61422
CTUN, 0, 0.00, 0.01, 0.000000, 0.00, 0, -6, 0, 0
ATT, 0.00, 0.68, -0.95, 2.54, 44.86, 205.17, 205.17
CTUN, 0, 0.00, 0.03, 0.000000, 0.00, 0, -6, 0, 0
ATT, 0.00, 0.68, -1.37, 2.54, 44.86, 205.17, 205.17
GPS, 3, 327153000, 1796, 10, 1.79, 40.4435473, -79.9429538, -0.09, 287.87, 0.02, 37.64, 0.080000, 61623
CTUN, 0, 0.00, 0.06, 0.000000, 0.00, 0, -6, 0, 0
ATT, 0.00, 0.67, -1.37, 2.54, 44.86, 205.17, 205.17
CTUN, 0, 0.00, 0.15, 0.000000, 0.00, 0, -6, 0, 0
ATT, 0.00, 0.67, -0.95, 2.55, 44.86, 205.17, 205.17
DU32, 7, 272985
CURR, 0, 0, 1143, 2057, 5096, 261.7853
GPS, 3, 327153200, 1796, 10, 1.79, 40.4435473, -79.9429538, -0.08, 287.87, 0.02, 37.64, 0.080000, 61822
CTUN, 0, 0.00, -0.02, 0.000000, 0.00, 0, -6, 0, 0
ATT, 0.00, 0.67, -0.84, 2.55, 44.86, 205.18, 205.18
CTUN, 0, 0.00, 0.03, 0.000000, 0.00, 0, -6, 0, 0
ATT, 0.00, 0.67, -0.84, 2.55, 44.86, 205.18, 205.18
GPS, 3, 327153400, 1796, 10, 1.79, 40.4435474, -79.9429538, -0.08, 287.87, 0.01, 37.64, 0.070000, 62022
CTUN, 0, 0.00, 0.16, 0.000000, 0.00, 0, -5, 0, 0
ATT, 0.00, 0.67, -0.95, 2.55, 45.00, 205.19, 205.19
CTUN, 0, 0.00, 0.02, 0.000000, 0.00, 0, -5, 0, 0
ATT, 0.00, 0.68, -0.95, 2.55, 45.00, 205.19, 205.19
GPS, 3, 327153600, 1796, 10, 1.79, 40.4435476, -79.9429538, -0.07, 287.86, 0.02, 37.64, 0.070000, 62223
CTUN, 0, 0.00, 0.03, 0.000000, 0.00, 0, -5, 0, 0
ATT, 0.00, 0.68, -0.84, 2.55, 45.00, 205.20, 205.20
CTUN, 0, 0.00, 0.05, 0.000000, 0.00, 0, -5, 0, 0
ATT, 0.00, 0.68, -0.74, 2.56, 45.00, 205.20, 205.20
GPS, 3, 327153800, 1796, 10, 1.79, 40.4435477, -79.9429538, -0.07, 287.85, 0.02, 37.64, 0.060000, 62423
CTUN, 0, 0.00, -0.04, 0.000000, 0.00, 0, -5, 0, 0
ATT, 0.00, 0.67, -0.84, 2.56, 44.86, 205.20, 205.20
CTUN, 0, 0.00, 0.03, 0.000000, 0.00, 0, -5, 0, 0
ATT, 0.00, 0.67, -0.84, 2.56, 45.00, 205.21, 205.21
GPS, 3, 327154000, 1796, 10, 1.79, 40.4435478, -79.9429538, -0.07, 287.85, 0.01, 37.64, 0.070000, 62623
CTUN, 0, 0.00, 0.02, 0.000000, 0.00, 0, -5, 0, 0
ATT, 0.00, 0.67, -0.63, 2.56, 45.00, 205.21, 205.21
CTUN, 0, 0.00, -0.02, 0.000000, 0.00, 0, -4, 0, 0
ATT, 0.00, 0.67, -0.74, 2.56, 45.00, 205.22, 205.22
DU32, 7, 272985
CURR, 0, 0, 1148, 2067, 5073, 267.5208
GPS, 3, 327154200, 1796, 10, 1.79, 40.4435479, -79.9429538, -0.07, 287.84, 0.01, 37.64, 0.080000, 62823
CTUN, 0, 0.00, 0.02, 0.000000, 0.00, 0, -4, 0, 0
ATT, 0.00, 0.67, -0.74, 2.56, 45.00, 205.22, 205.22
CTUN, 0, 0.00, 0.00, 0.000000, 0.00, 0, -4, 0, 0
ATT, -0.10, 0.67, -0.95, 2.56, 44.86, 205.22, 205.22
GPS, 3, 327154400, 1796, 10, 1.79, 40.4435480, -79.9429538, -0.07, 287.84, 0.02, 37.64, 0.070000, 63023
CTUN, 0, 0.00, -0.01, 0.000000, 0.00, 0, -4, 0, 0
ATT, 0.00, 0.67, -0.84, 2.57, 45.00, 205.23, 205.23
CTUN, 0, 0.00, -0.08, 0.000000, 0.00, 0, -4, 0, 0
ATT, 0.00, 0.67, -0.95, 2.57, 44.86, 205.23, 205.23
GPS, 3, 327154600, 1796, 10, 1.79, 40.4435481, -79.9429538, -0.08, 287.83, 0.01, 37.64, 0.080000, 63223
CTUN, 0, 0.00, -0.02, 0.000000, 0.00, 0, -4, 0, 0
ATT, 0.00, 0.67, -0.95, 2.57, 44.86, 205.23, 205.23
CTUN, 0, 0.00, 0.04, 0.000000, 0.00, 0, -4, 0, 0
ATT, 0.00, 0.67, -0.95, 2.57, 44.86, 205.23, 205.23
GPS, 3, 327154800, 1796, 10, 1.79, 40.4435483, -79.9429537, -0.08, 287.83, 0.03, 37.64, 0.080000, 63423
CTUN, 0, 0.00, 0.05, 0.000000, 0.00, 0, -4, 0, 0
ATT, 0.00, 0.67, -0.95, 2.57, 44.86, 205.23, 205.23
CTUN, 0, 0.00, -0.02, 0.000000, 0.00, 0, -3, 0, 0
ATT, 0.00, 0.67, -0.95, 2.57, 44.86, 205.22, 205.22
GPS, 3, 327155000, 1796, 10, 1.79, 40.4435484, -79.9429537, -0.07, 287.82, 0.01, 37.64, 0.060000, 63623
CTUN, 0, 0.00, 0.00, 0.000000, 0.00, 0, -3, 0, 0
ATT, 0.00, 0.67, -0.84, 2.58, 44.86, 205.23, 205.23
CTUN, 0, 0.00, -0.03, 0.000000, 0.00, 0, -3, 0, 0
ATT, 0.00, 0.67, -0.95, 2.57, 44.86, 205.23, 205.23
DU32, 7, 272985
CURR, 0, 0, 1152, 2068, 5096, 273.2450
GPS, 3, 327155200, 1796, 10, 1.79, 40.4435485, -79.9429536, -0.07, 287.82, 0.02, 37.64, 0.080000, 63822
CTUN, 0, 0.00, 0.01, 0.000000, 0.00, 0, -3, 0, 0
ATT, 0.00, 0.68, -0.84, 2.56, 44.86, 205.24, 205.24
CTUN, 0, 0.00, -0.05, 0.000000, 0.00, 0, -3, 0, 0
ATT, 0.00, 0.67, -0.74, 2.57, 45.00, 205.24, 205.24
GPS, 3, 327155400, 1796, 10, 1.79, 40.4435486, -79.9429536, -0.08, 287.82, 0.01, 37.64, 0.070000, 64023
CTUN, 0, 0.00, 0.03, 0.000000, 0.00, 0, -3, 0, 0
ATT, 0.00, 0.67, -0.84, 2.58, 44.86, 205.24, 205.24
CTUN, 0, 0.00, 0.01, 0.000000, 0.00, 0, -3, 0, 0
ATT, 0.00, 0.67, -0.84, 2.57, 45.00, 205.24, 205.24
GPS, 3, 327155600, 1796, 10, 1.79, 40.4435487, -79.9429536, -0.07, 287.81, 0.02, 37.64, 0.080000, 64223
CTUN, 0, 0.00, -0.02, 0.000000, 0.00, 0, -3, 0, 0
ATT, 0.00, 0.67, -1.48, 2.57, 45.00, 205.25, 205.25
CTUN, 0, 0.00, -0.03, 0.000000, 0.00, 0, -3, 0, 0
ATT, 0.00, 0.67, -1.69, 2.58, 44.86, 205.25, 205.25
GPS, 3, 327155800, 1796, 10, 1.79, 40.4435488, -79.9429535, -0.07, 287.81, 0.02, 37.64, 0.070000, 64423
CTUN, 0, 0.00, 0.01, 0.000000, 0.00, 0, -2, 0, 0
ATT, 0.00, 0.68, -0.95, 2.58, 44.86, 205.25, 205.25
CTUN, 0, 0.00, 0.03, 0.000000, 0.00, 0, -2, 0, 0
ATT, 0.00, 0.67, -0.95, 2.58, 44.86, 205.25, 205.25
CTUN, 0, 0.00, 0.08, 0.000000, 0.00, 0, -2, 0, 0
ATT, -0.10, 0.67, -0.74, 2.58, 44.86, 205.24, 205.24
GPS, 3, 327156000, 1796, 10, 1.79, 40.4435489, -79.9429535, -0.06, 287.80, 0.01, 37.64, 0.090000, 64642
CTUN, 0, 0.00, 0.04, 0.000000, 0.00, 0, -2, 0, 0
ATT, 0.00, 0.67, -0.74, 2.58, 44.86, 205.25, 205.25
DU32, 7, 272985
CURR, 0, 0, 1143, 2056, 5120, 278.9721
GPS, 3, 327156200, 1796, 10, 1.79, 40.4435490, -79.9429534, -0.05, 287.80, 0.02, 37.64, 0.070000, 64823
CTUN, 0, 0.00, -0.05, 0.000000, 0.00, 0, -2, 0, 0
ATT, 0.00, 0.66, -0.74, 2.58, 45.00, 205.25, 205.25
CTUN, 0, 0.00, 0.05, 0.000000, 0.00, 0, -2, 0, 0
ATT, 0.00, 0.66, -0.74, 2.58, 45.13, 205.25, 205.25
GPS, 3, 327156400, 1796, 10, 1.79, 40.4435492, -79.9429534, -0.05, 287.80, 0.01, 37.64, 0.050000, 65023
CTUN, 0, 0.00, 0.04, 0.000000, 0.00, 0, -2, 0, 0
ATT, 0.00, 0.66, -0.74, 2.59, 44.86, 205.26, 205.26
CTUN, 0, 0.00, -0.02, 0.000000, 0.00, 0, -2, 0, 0
ATT, 0.00, 0.66, -0.95, 2.58, 44.86, 205.26, 205.26
GPS, 3, 327156600, 1796, 10, 1.79, 40.4435493, -79.9429533, -0.05, 287.79, 0.01, 37.64, 0.050000, 65223
CTUN, 0, 0.00, -0.01, 0.000000, 0.00, 0, -2, 0, 0
ATT, 0.00, 0.66, -1.27, 2.58, 0.00, 205.26, 205.26
CTUN, 0, 0.00, 0.12, 0.000000, 0.00, 0, -1, 0, 0
ATT, 0.00, 0.66, -0.95, 2.58, 0.00, 205.27, 205.27
GPS, 3, 327156800, 1796, 10, 1.79, 40.4435494, -79.9429532, -0.04, 287.79, 0.01, 37.64, 0.060000, 65423
CTUN, 0, 0.00, 0.05, 0.000000, 0.00, 0, -1, 0, 0
ATT, 0.00, 0.66, -1.16, 2.58, 0.00, 205.27, 205.27
CTUN, 0, 0.00, 0.06, 0.000000, 0.00, 0, -1, 0, 0
ATT, 0.00, 0.66, -0.95, 2.58, 0.00, 205.27, 205.27
GPS, 3, 327157000, 1796, 10, 1.79, 40.4435495, -79.9429532, -0.03, 287.79, 0.01, 37.64, 0.080000, 65623
CTUN, 0, 0.00, -0.02, 0.000000, 0.00, 0, -1, 0, 0
ATT, 0.00, 0.66, -0.74, 2.58, 0.00, 205.28, 205.28
CTUN, 0, 0.00, 0.00, 0.000000, 0.00, 0, -1, 0, 0
ATT, 0.00, 0.66, -1.16, 2.58, 0.00, 205.28, 205.28
DU32, 7, 272985
CURR, 0, 0, 1149, 2062, 5096, 284.7057
PM, 0, 0, 0, 1000, 10225, 0, 0, 0, 0
GPS, 3, 327157200, 1796, 10, 1.79, 40.4435496, -79.9429532, -0.03, 287.78, 0.01, 37.64, 0.070000, 65823
CTUN, 0, 0.00, 0.03, 0.000000, 0.00, 0, -1, 0, 0
ATT, 0.00, 0.67, -1.27, 2.58, 0.00, 205.28, 205.28
CTUN, 0, 0.00, 0.05, 0.000000, 0.00, 0, 0, 0, 0
ATT, 0.00, 0.67, -1.05, 2.58, 0.00, 205.28, 205.28
GPS, 3, 327157400, 1796, 10, 1.79, 40.4435497, -79.9429531, -0.02, 287.78, 0.02, 37.64, 0.080000, 66023
CTUN, 0, 0.00, 0.00, 0.000000, 0.00, 0, 0, 0, 0
ATT, 0.00, 0.67, -0.95, 2.58, 0.00, 205.29, 205.29
CTUN, 0, 0.00, 0.10, 0.000000, 0.00, 0, 0, 0, 0
ATT, 0.00, 0.67, -1.05, 2.58, 0.00, 205.29, 205.29
GPS, 3, 327157600, 1796, 10, 1.79, 40.4435498, -79.9429531, -0.02, 287.79, 0.01, 37.64, 0.070000, 66223
CTUN, 0, 0.00, 0.05, 0.000000, 0.00, 0, 0, 0, 0
ATT, 0.00, 0.67, -1.05, 2.59, 0.00, 205.30, 205.30
CTUN, 0, 0.00, -0.02, 0.000000, 0.00, 0, 0, 0, 0
ATT, 0.00, 0.67, -0.84, 2.58, 0.00, 205.30, 205.30
GPS, 3, 327157800, 1796, 10, 1.79, 40.4435499, -79.9429532, -0.01, 287.78, 0.01, 37.64, 0.070000, 66424
CTUN, 0, 0.00, 0.05, 0.000000, 0.00, 0, 0, 0, 0
ATT, 0.00, 0.67, -1.05, 2.58, 0.00, 205.30, 205.30
CTUN, 0, 0.00, 0.02, 0.000000, 0.00, 0, 0, 0, 0
ATT, 0.00, 0.67, -0.74, 2.58, 0.00, 205.30, 205.30
GPS, 3, 327158000, 1796, 10, 1.79, 40.4435500, -79.9429532, -0.01, 287.78, 0.00, 37.64, 0.040000, 66624
CTUN, 0, 0.00, -0.05, 0.000000, 0.00, 0, 0, 0, 0
ATT, 0.00, 0.67, -0.95, 2.58, 0.00, 205.31, 205.31
CTUN, 0, 0.00, 0.00, 0.000000, 0.00, 0, 0, 0, 0
ATT, 0.00, 0.67, -0.84, 2.58, 0.00, 205.31, 205.31
DU32, 7, 272985
CURR, 0, 0, 1143, 2058, 5120, 290.4254
GPS, 3, 327158200, 1796, 10, 1.79, 40.4435501, -79.9429532, -0.01, 287.79, 0.01, 37.64, 0.040000, 66823
CTUN, 0, 0.00, 0.07, 0.000000, 0.00, 0, 0, 0, 0
ATT, 0.00, 0.66, -0.84, 2.57, 0.00, 205.31, 205.31
CTUN, 0, 0.00, 0.07, 0.000000, 0.00, 0, 0, 0, 0
ATT, 0.00, 0.66, -1.80, 2.58, 0.00, 205.31, 205.31
GPS, 3, 327158400, 1796, 10, 1.79, 40.4435502, -79.9429532, 0.00, 287.80, 0.02, 37.64, 0.060000, 67023
CTUN, 0, 0.00, -0.08, 0.000000, 0.00, 0, 0, 0, 0
ATT, 0.00, 0.66, -2.01, 2.58, 0.00, 205.32, 205.32
CTUN, 0, 0.00, -0.01, 0.000000, 0.00, 0, 0, 0, 0
ATT, 0.00, 0.67, -0.84, 2.58, 0.00, 205.33, 205.33
GPS, 3, 327158600, 1796, 10, 1.79, 40.4435503, -79.9429533, 0.00, 287.81, 0.01, 37.64, 0.070000, 67223
CTUN, 0, 0.00, 0.03, 0.000000, 0.00, 0, 0, 0, 0
ATT, 0.00, 0.67, -0.95, 2.57, 0.00, 205.34, 205.34
CTUN, 0, 0.00, -0.05, 0.000000, 0.00, 0, 0, 0, 0
ATT, 0.00, 0.66, -1.16, 2.57, 0.00, 205.34, 205.34
GPS, 3, 327158800, 1796, 10, 1.79, 40.4435503, -79.9429534, 0.00, 287.82, 0.02, 37.64, 0.080000, 67424
CTUN, 0, 0.00, 0.00, 0.000000, 0.00, 0, 0, 0, 0
ATT, 0.00, 0.66, -1.27, 2.57, 0.00, 205.34, 205.34
CTUN, 0, 0.00, 0.00, 0.000000, 0.00, 0, 0, 0, 0
ATT, 0.00, 0.67, -1.16, 2.57, 0.00, 205.34, 205.34
CTUN, 0, 0.00, -0.08, 0.000000, 0.00, 0, 0, 0, 0
ATT, 0.00, 0.67, -0.95, 2.57, 0.00, 205.34, 205.34
GPS, 3, 327159000, 1796, 10, 1.79, 40.4435504, -79.9429535, 0.00, 287.82, 0.01, 37.64, 0.080000, 67642
CTUN, 0, 0.00, 0.00, 0.000000, 0.00, 0, 0, 0, 0
ATT, 0.00, 0.67, -1.05, 2.58, 0.00, 205.34, 205.34
EV, 15
DU32, 7, 273017
CURR, 137, 0, 1144, 2058, 5120, 296.1545
GPS, 3, 327159200, 1796, 10, 1.79, 40.4435505, -79.9429535, 0.00, 287.84, 0.02, 37.64, 0.060000, 67824
CTUN, 144, 0.00, 0.04, 0.000000, 0.00, 0, 0, 144, 0
ATT, 0.00, 0.67, -0.84, 2.58, 0.00, 205.34, 205.34
EV, 28
CTUN, 159, 0.00, -0.03, 0.000000, 0.00, 0, 0, 159, 0
ATT, 0.00, 0.65, -0.95, 2.58, 0.00, 205.36, 205.35
GPS, 3, 327159400, 1796, 10, 1.79, 40.4435506, -79.9429536, 0.00, 287.85, 0.02, 37.64, 0.060000, 68025
CTUN, 175, 0.00, 0.00, 0.000000, 0.00, 0, 0, 175, 0
ATT, 0.00, 0.66, -1.16, 2.58, 0.00, 205.31, 205.35
CTUN, 174, 0.00, -0.02, 0.000000, 0.00, 0, 0, 174, 0
ATT, 0.00, 0.67, -1.05, 2.57, 0.00, 205.30, 205.35
GPS, 3, 327159600, 1796, 10, 1.79, 40.4435507, -79.9429537, 0.00, 287.87, 0.01, 37.64, 0.050000, 68224
CTUN, 170, 0.00, 0.03, 0.000000, 0.00, 0, 0, 170, 0
ATT, 0.00, 0.66, -1.16, 2.57, 0.00, 205.31, 205.35
CTUN, 169, 0.00, 0.11, 0.000000, 0.00, 0, 0, 169, 0
ATT, 0.00, 0.67, -1.05, 2.57, 0.00, 205.29, 205.35
GPS, 3, 327159800, 1796, 10, 1.79, 40.4435507, -79.9429539, 0.00, 287.88, 0.01, 37.64, 0.050000, 68425
CTUN, 169, 0.00, 0.05, 0.000000, 0.00, 0, 0, 169, 0
ATT, 0.00, 0.66, -0.95, 2.58, 0.00, 205.29, 205.35
CTUN, 173, 0.00, 0.02, 0.000000, 0.00, 0, 0, 170, 0
ATT, 0.00, 0.66, -1.16, 2.57, 0.00, 205.27, 205.35
GPS, 3, 327160000, 1796, 10, 1.79, 40.4435508, -79.9429540, 0.01, 287.90, 0.02, 37.64, 0.050000, 68625
CTUN, 174, 0.00, 0.15, 0.000000, 0.00, 0, 0, 174, 0
ATT, 0.00, 0.65, -1.27, 2.57, 0.00, 205.24, 205.35
CTUN, 174, 0.00, 0.05, 0.000000, 0.00, 0, 1, 174, 0
ATT, 0.00, 0.66, -1.27, 2.57, 0.00, 205.23, 205.35
DU32, 7, 272505
CURR, 174, 1668, 1145, 2053, 5073, 301.8745
GPS, 3, 327160200, 1796, 10, 1.79, 40.4435508, -79.9429541, 0.02, 287.92, 0.00, 37.64, 0.060000, 68825
CTUN, 172, 0.00, 0.08, 0.000000, 0.00, 0, 1, 172, 0
ATT, 0.00, 0.65, -0.84, 2.57, 0.00, 205.21, 205.35
CTUN, 174, 0.00, 0.22, 0.000000, 0.00, 0, 1, 174, 0
ATT, 0.00, 0.65, -1.05, 2.57, 0.00, 205.19, 205.35
GPS, 3, 327160400, 1796, 10, 1.79, 40.4435509, -79.9429542, 0.04, 287.94, 0.02, 37.64, 0.080000, 69025
CTUN, 174, 0.00, 0.11, 0.000000, 0.00, 0, 1, 174, 0
ATT, 0.00, 0.63, -1.27, 2.56, 0.00, 205.18, 205.35
CTUN, 174, 0.00, -0.01, 0.000000, 0.00, 0, 1, 174, 0
ATT, 0.00, 0.63, -1.27, 2.56, 0.00, 205.17, 205.35
GPS, 3, 327160600, 1796, 10, 1.79, 40.4435510, -79.9429544, 0.04, 287.96, 0.01, 37.64, 0.060000, 69225
CTUN, 174, 0.00, 0.04, 0.000000, 0.00, 0, 1, 174, 0
ATT, 0.00, 0.66, -1.16, 2.56, 0.00, 205.17, 205.35
CTUN, 174, 0.00, 0.11, 0.000000, 0.00, 0, 1, 174, 0
ATT, 0.00, 0.63, -1.16, 2.56, 0.00, 205.14, 205.35
GPS, 3, 327160800, 1796, 10, 1.79, 40.4435510, -79.9429545, 0.05, 287.98, 0.02, 37.64, 0.060000, 69425
CTUN, 174, 0.00, 0.09, 0.000000, 0.00, 0, 2, 173, 0
ATT, 0.00, 0.64, -1.16, 2.55, 0.00, 205.13, 205.35
CTUN, 175, 0.00, 0.22, 0.000000, 0.00, 0, 2, 175, 0
ATT, 0.00, 0.64, -1.58, 2.55, 0.00, 205.13, 205.35
CTUN, 177, 0.00, 0.08, 0.000000, 0.00, 0, 2, 175, 0
GPS, 3, 327161000, 1796, 10, 1.79, 40.4435511, -79.9429547, 0.07, 288.00, 0.01, 37.64, 0.070000, 69644
ATT, 0.00, 0.64, -2.01, 2.55, 0.00, 205.11, 205.35
CTUN, 174, 0.00, 0.00, 0.000000, 0.00, 0, 2, 174, 0
ATT, 0.00, 0.64, -1.16, 2.54, 0.00, 205.08, 205.35
DU32, 7, 272505
CURR, 174, 3410, 1146, 2061, 5096, 307.5885
GPS, 3, 327161200, 1796, 10, 1.79, 40.4435511, -79.9429548, 0.07, 288.02, 0.01, 37.64, 0.060000, 69825
CTUN, 171, 0.00, 0.12, 0.000000, 0.00, 0, 2, 174, 0
ATT, 0.00, 0.64, -0.95, 2.55, 0.00, 205.07, 205.35
CTUN, 173, 0.00, 0.06, 0.000000, 0.00, 0, 3, 173, 0
ATT, 0.00, 0.63, -1.05, 2.54, 0.00, 205.06, 205.35
GPS, 3, 327161400, 1796, 10, 1.79, 40.4435512, -79.9429550, 0.08, 288.04, 0.01, 37.64, 0.030000, 70025
CTUN, 172, 0.00, 0.11, 0.000000, 0.00, 0, 3, 173, 0
ATT, 0.00, 0.64, -1.05, 2.54, 0.00, 205.05, 205.35
CTUN, 174, 0.00, 0.07, 0.000000, 0.00, 0, 3, 174, 0
ATT, 0.00, 0.63, -1.16, 2.54, 0.00, 205.04, 205.35
GPS, 3, 327161600, 1796, 10, 1.79, 40.4435512, -79.9429551, 0.09, 288.07, 0.01, 37.64, 0.060000, 70225
CTUN, 173, 0.00, 0.05, 0.000000, 0.00, 0, 4, 174, 0
ATT, 0.00, 0.62, -1.16, 2.54, 0.00, 205.03, 205.35
CTUN, 174, 0.00, 0.06, 0.000000, 0.00, 0, 4, 174, 0
ATT, 0.00, 0.63, -1.05, 2.54, 0.00, 205.02, 205.35
GPS, 3, 327161800, 1796, 10, 1.79, 40.4435513, -79.9429553, 0.09, 288.09, 0.01, 37.64, 0.060000, 70425
CTUN, 174, 0.00, -0.02, 0.000000, 0.00, 0, 5, 174, 0
ATT, 0.00, 0.62, -1.16, 2.54, 0.00, 205.01, 205.35
EV, 18
CTUN, 174, 0.00, 0.00, 0.000000, 0.00, 0, 5, 174, 0
ATT, 0.00, 0.61, -1.05, 2.53, 0.00, 204.98, 204.98
CTUN, 173, 0.00, 0.07, 0.000000, 0.00, 0, 5, 173, 0
GPS, 3, 327162000, 1796, 10, 1.79, 40.4435513, -79.9429554, 0.09, 288.12, 0.02, 37.64, 0.050000, 70645
ATT, 0.00, 0.62, -1.05, 2.54, 0.00, 204.98, 204.98
CTUN, 173, 0.00, 0.03, 0.000000, 0.00, 0, 5, 173, 0
ATT, 0.00, 0.60, -1.05, 2.54, 0.00, 204.94, 204.94
DU32, 7, 273017
CURR, 178, 5144, 1138, 2047, 5096, 313.2855
GPS, 3, 327162200, 1796, 10, 1.79, 40.4435514, -79.9429555, 0.10, 288.14, 0.01, 37.64, 0.070000, 70825
CTUN, 184, 0.00, 0.07, 0.000000, 0.00, 0, 5, 184, 0
ATT, 0.00, 0.64, -1.16, 2.54, 0.00, 204.94, 204.94
EV, 28
CTUN, 212, 0.00, -0.06, 0.000000, 0.00, 0, 5, 212, 0
ATT, 0.00, 0.57, -1.05, 2.55, 0.00, 204.92, 204.95
GPS, 3, 327162400, 1796, 10, 1.79, 40.4435514, -79.9429557, 0.10, 288.16, 0.02, 37.64, 0.070000, 71025
CTUN, 222, 0.00, 0.22, 0.000000, 0.00, 0, 5, 222, 0
ATT, 0.00, 0.60, -0.84, 2.53, 0.00, 204.92, 204.95
CTUN, 219, 0.00, 0.14, 0.000000, 0.00, 0, 5, 219, 0
ATT, 0.00, 0.58, -1.16, 2.52, 0.00, 204.90, 204.95
GPS, 3, 327162600, 1796, 10, 1.79, 40.4435515, -79.9429558, 0.12, 288.18, 0.01, 37.64, 0.070000, 71225
CTUN, 222, 0.00, 0.02, 0.000000, 0.00, 0, 5, 222, 0
ATT, 0.00, 0.59, -1.16, 2.53, 0.00, 204.89, 204.95
CTUN, 222, 0.00, 0.13, 0.000000, 0.00, 0, 6, 222, 0
ATT, 0.00, 0.58, -1.05, 2.52, 0.00, 204.88, 204.95
GPS, 3, 327162800, 1796, 10, 1.79, 40.4435515, -79.9429559, 0.12, 288.20, 0.02, 37.64, 0.050000, 71425
CTUN, 221, 0.00, 0.22, 0.000000, 0.00, 0, 5, 222, 0
ATT, 0.00, 0.56, -1.16, 2.53, 0.00, 204.85, 204.95
CTUN, 221, 0.00, 0.11, 0.000000, 0.00, 0, 6, 221, 0
ATT, 0.00, 0.55, -1.05, 2.53, 0.00, 204.83, 204.95
CTUN, 222, 0.00, 0.24, 0.000000, 0.00, 0, 5, 222, 0
GPS, 3, 327163000, 1796, 10, 1.79, 40.4435515, -79.9429561, 0.14, 288.22, 0.02, 37.64, 0.070000, 71644
ATT, 0.00, 0.60, -1.27, 2.53, 0.00, 204.83, 204.95
CTUN, 222, 0.00, 0.13, 0.000000, 0.00, 0, 6, 222, 0
ATT, 0.00, 0.56, -1.16, 2.52, 0.00, 204.78, 204.95
DU32, 7, 272505
CURR, 222, 7308, 1140, 2054, 5096, 318.9814
CTUN, 222, 0.00, 0.19, 0.000000, 0.00, 0, 6, 222, 0
GPS, 3, 327163200, 1796, 10, 1.79, 40.4435516, -79.9429562, 0.16, 288.24, 0.01, 37.64, 0.060000, 71844
ATT, 0.00, 0.58, -1.05, 2.52, 0.00, 204.79, 204.95
CTUN, 222, 0.00, 0.14, 0.000000, 0.00, 0, 6, 222, 0
ATT, 0.00, 0.51, -1.27, 2.53, 0.00, 204.75, 204.95
GPS, 3, 327163400, 1796, 10, 1.79, 40.4435516, -79.9429564, 0.17, 288.26, 0.01, 37.64, 0.060000, 72025
CTUN, 248, 0.00, 0.23, 0.000000, 0.00, 0, 6, 248, 0
ATT, 0.00, 0.51, -1.27, 2.52, 0.00, 204.74, 204.95
CTUN, 244, 0.00, 0.16, 0.000000, 0.00, 0, 7, 244, 0
ATT, 0.00, 0.47, -1.27, 2.52, 0.00, 204.72, 204.95
GPS, 3, 327163600, 1796, 10, 1.79, 40.4435517, -79.9429565, 0.19, 288.29, 0.02, 37.64, 0.050000, 72225
CTUN, 252, 0.00, 0.04, 0.000000, 0.00, 0, 7, 248, 0
EV, 16
ATT, 0.00, 0.45, -1.80, 2.52, 0.00, 204.69, 204.95
CTUN, 249, 0.00, 0.11, 0.000000, 0.00, 0, 6, 249, 0
ATT, 0.00, 0.45, -1.80, 2.51, 0.00, 204.66, 204.95
GPS, 3, 327163800, 1796, 10, 1.79, 40.4435517, -79.9429566, 0.19, 288.30, 0.02, 37.64, 0.070000, 72425
CTUN, 252, 0.00, 0.01, 0.000000, 0.00, 0, 6, 251, 0
ATT, 0.00, 0.37, -1.16, 2.50, 0.00, 204.63, 204.95
CTUN, 252, 0.00, 0.15, 0.000000, 0.00, 0, 5, 252, 0
ATT, 0.00, 0.38, -1.05, 2.52, 0.00, 204.62, 204.95
CTUN, 270, 0.00, 0.13, 0.000000, 0.00, 0, 5, 252, 0
GPS, 3, 327164000, 1796, 10, 1.79, 40.4435518, -79.9429567, 0.19, 288.32, 0.01, 37.64, 0.050000, 72644
ATT, 0.00, 0.41, -0.84, 2.52, 0.00, 204.59, 204.95
CTUN, 273, 0.00, -0.03, 0.000000, 0.00, 0, 5, 273, 0
ATT, 0.00, 0.36, -1.27, 2.50, 0.00, 204.56, 204.95
DU32, 7, 272761
CURR, 281, 9767, 1138, 2045, 5096, 324.6725
CTUN, 278, 0.00, 0.17, 0.000000, 0.00, 0, 5, 281, 0
GPS, 3, 327164200, 1796, 10, 1.79, 40.4435518, -79.9429569, 0.19, 288.34, 0.01, 37.64, 0.030000, 72844
ATT, 0.00, 0.28, -1.05, 2.51, 0.00, 204.53, 204.95
CTUN, 293, 0.00, 0.10, 0.000000, 0.00, 0, 4, 293, 0
ATT, 0.00, 0.37, -1.27, 2.50, 0.00, 204.49, 204.95
CTUN, 299, 0.00, 0.21, 0.000000, 0.00, 0, 4, 294, 0
GPS, 3, 327164400, 1796, 10, 1.79, 40.4435518, -79.9429570, 0.19, 288.35, 0.01, 37.64, 0.030000, 73044
ATT, 0.00, 0.47, -1.27, 2.49, 0.00, 204.47, 204.95
CTUN, 313, 0.00, 0.13, 0.000000, 0.00, 0, 5, 313, 0
ATT, 0.00, 0.19, -1.16, 2.51, 0.00, 204.41, 204.95
GPS, 3, 327164600, 1796, 10, 1.79, 40.4435519, -79.9429572, 0.20, 288.37, 0.03, 37.64, 0.070000, 73226
CTUN, 319, 0.00, 0.18, 0.000000, 0.00, 0, 4, 319, 0
ATT, 0.00, -0.01, -1.27, 2.53, 0.00, 204.42, 204.95
CTUN, 333, 0.00, 0.05, 0.000000, 0.00, 0, 5, 333, 0
ATT, 0.00, -0.06, -1.27, 2.53, 0.00, 204.37, 204.95
CTUN, 335, 0.00, 0.21, 0.000000, 0.00, 0, 4, 335, 0
GPS, 3, 327164800, 1796, 10, 1.79, 40.4435520, -79.9429573, 0.20, 288.38, 0.00, 37.64, 0.050000, 73444
ATT, 0.00, 0.36, -1.16, 2.50, 0.00, 204.36, 204.95
CTUN, 356, 0.00, 0.32, 0.000000, 0.00, 0, 5, 356, 0
ATT, 0.00, 0.51, -1.27, 2.46, 0.39, 204.32, 205.01
CTUN, 368, 0.00, 0.16, 0.000000, 0.00, 0, 5, 368, 0
GPS, 3, 327165000, 1796, 10, 1.79, 40.4435520, -79.9429574, 0.22, 288.40, 0.02, 37.64, 0.050000, 73645
ATT, 0.00, 0.05, -1.37, 2.49, 0.92, 204.26, 205.29
CTUN, 381, 0.00, 0.27, 0.000000, 0.00, 0, 5, 381, 0
ATT, 0.00, 0.14, -1.27, 2.49, 1.19, 204.26, 205.70
DU32, 7, 272761
CURR, 392, 13010, 1128, 2026, 5096, 330.3284
CTUN, 398, 0.00, 0.37, 0.000000, 0.00, 0, 5, 398, 0
GPS, 3, 327165200, 1796, 10, 1.79, 40.4435521, -79.9429575, 0.23, 288.42, 0.01, 37.64, 0.070000, 73845
ATT, 0.00, 0.61, -1.27, 2.48, 1.32, 204.37, 206.19
CTUN, 405, 0.00, 0.32, 0.000000, 0.00, 0, 5, 405, 0
ATT, 0.00, 0.25, -1.27, 2.49, 0.92, 204.33, 206.69
GPS, 3, 327165400, 1796, 10, 1.79, 40.4435521, -79.9429577, 0.25, 288.43, 0.03, 37.64, 0.080000, 74026
CTUN, 424, 0.00, 0.35, 0.000000, 0.00, 0, 5, 424, 0
ATT, 0.00, -0.29, -0.84, 2.52, 1.19, 204.25, 207.17
CTUN, 443, 0.00, 0.59, 0.000000, 0.00, 0, 6, 443, 0
ATT, 0.00, -0.24, -1.27, 2.51, 1.06, 204.46, 207.66
CTUN, 458, 0.00, 0.53, 0.000000, 0.00, 0, 8, 458, 0
GPS, 3, 327165600, 1796, 10, 1.79, 40.4435522, -79.9429577, 0.29, 288.45, 0.02, 37.64, 0.030000, 74245
ATT, 0.00, -0.25, -1.27, 2.47, 1.06, 204.68, 208.06
CTUN, 475, 0.00, 0.48, 0.000000, 0.00, 0, 11, 475, 0
ATT, 0.00, -0.23, -1.27, 2.52, 0.79, 205.02, 208.45
CTUN, 485, 0.00, 0.55, 0.000000, 0.00, 0, 11, 476, 0
GPS, 3, 327165800, 1796, 10, 1.79, 40.4435522, -79.9429578, 0.34, 288.47, 0.02, 37.64, 0.040000, 74444
ATT, 0.00, -0.26, -0.84, 2.50, 1.06, 205.34, 208.84
CTUN, 486, 0.00, 0.37, 0.000000, 0.00, 0, 12, 486, 0
ATT, 0.00, -0.36, -1.37, 2.42, 1.85, 205.96, 209.55
CTUN, 485, 0.00, 0.27, 0.000000, 0.00, 0, 12, 485, 0
GPS, 3, 327166000, 1796, 10, 1.79, 40.4435523, -79.9429579, 0.38, 288.48, 0.01, 37.64, 0.060000, 74645
ATT, 0.00, -0.24, -1.27, 2.48, 1.72, 206.66, 210.26
CTUN, 486, 0.00, 0.42, 0.000000, 0.00, 0, 15, 486, 0
ATT, 0.00, -0.31, -1.27, 2.42, 2.52, 207.28, 211.07
DU32, 7, 272761
CURR, 495, 17536, 1124, 2024, 5073, 335.9520
CTUN, 496, 0.00, 0.29, 0.000000, 0.00, 0, 12, 496, 0
GPS, 3, 327166200, 1796, 10, 1.79, 40.4435524, -79.9429580, 0.40, 288.51, 0.03, 37.64, 0.070000, 74845
ATT, 0.00, -0.33, -0.95, 2.42, 3.84, 207.55, 212.41
CTUN, 533, 0.00, 0.44, 0.000000, 0.00, 0, 17, 529, 0
ATT, 0.00, -0.50, -2.22, 2.33, 5.84, 208.42, 214.24
CTUN, 544, 0.00, 0.51, 0.000000, 0.00, 0, 18, 540, 0
GPS, 3, 327166400, 1796, 10, 1.79, 40.4435524, -79.9429581, 0.44, 288.53, 0.02, 37.64, 0.060000, 75045
ATT, 0.00, -1.35, -1.80, 1.52, 5.57, 209.73, 216.82
CTUN, 553, 0.00, 0.52, 0.000000, 0.00, 0, 23, 553, 0
ATT, 0.00, -2.87, -1.05, -0.28, 5.30, 211.85, 219.32
CTUN, 565, 0.00, 0.35, 0.000000, 0.00, 1, 26, 566, 0
GPS, 3, 327166600, 1796, 10, 1.79, 40.4435525, -79.9429582, 0.49, 288.56, 0.01, 37.64, 0.030000, 75245
ATT, 0.00, -4.65, -1.05, -2.89, 5.30, 215.28, 221.58
CTUN, 564, 0.00, 0.48, 0.000000, 0.00, 4, 30, 568, 0
ATT, 0.00, -6.39, -1.16, -6.68, 5.17, 219.52, 223.87
CTUN, 563, 0.00, 0.34, 0.000000, 0.00, 9, 28, 572, 0
GPS, 3, 327166800, 1796, 10, 1.79, 40.4435524, -79.9429581, 0.55, 288.61, 0.10, 37.64, -0.090000, 75445
ATT, 0.00, -6.67, -1.05, -11.11, 5.17, 223.97, 226.17
CTUN, 563, 0.00, 0.34, 0.000000, 0.00, 20, 39, 583, 0
ATT, 0.00, -8.55, -1.16, -16.61, 6.10, 230.24, 228.65
CTUN, 564, 0.00, 0.42, 0.000000, 0.00, 28, 29, 592, 0
GPS, 3, 327167000, 1796, 10, 1.79, 40.4435519, -79.9429581, 0.59, 288.66, 0.26, 115.18, -0.130000, 75645
ATT, 0.00, -6.48, -1.05, -19.13, 4.24, 236.69, 230.98
CTUN, 587, 0.00, 0.67, 0.000000, 0.00, 26, 23, 613, 0
ATT, 0.00, 0.07, -1.05, -19.03, 1.06, 240.90, 232.05
DU32, 7, 272761
CURR, 609, 23138, 1105, 1995, 5073, 341.5134
PM, 0, 0, 0, 1000, 10233, 0, 0, 0, 0
CTUN, 590, 0.00, 0.20, 0.000000, 0.00, 22, 22, 612, 0
GPS, 3, 327167200, 1796, 10, 1.79, 40.4435510, -79.9429583, 0.64, 288.68, 0.53, 166.93, -0.080000, 75845
ATT, 0.00, 4.44, -1.05, -16.71, 0.00, 243.43, 233.43
CTUN, 615, 0.00, 0.27, 0.000000, 0.00, 59, 81, 674, 0
ATT, 0.00, -4.49, -1.27, -30.05, 0.00, 249.35, 239.35
CTUN, 657, 0.00, 0.44, 0.000000, 0.00, 167, 60, 824, 0
GPS, 3, 327167400, 1796, 10, 1.79, 40.4435495, -79.9429597, 0.72, 288.70, 0.94, 204.65, 0.070000, 76045
ATT, 0.00, -13.56, -0.84, -39.78, 0.00, 256.36, 246.36
CTUN, 676, 0.00, 0.26, 0.000000, 0.00, 151, 44, 821, 0
ATT, 0.00, -14.57, -1.05, -34.08, 0.00, 259.18, 249.18
CTUN, 677, 0.00, 0.19, 0.000000, 0.00, 69, 60, 746, 0
GPS, 3, 327167600, 1796, 9, 2.34, 40.4435481, -79.9429617, 0.78, 288.80, 1.15, 217.25, -0.260000, 76245
ATT, 0.00, -11.54, -1.05, -22.46, 0.00, 260.16, 250.16
CTUN, 683, 0.00, 0.38, 0.000000, 0.00, 25, 87, 708, 0
ATT, 0.00, -8.57, -1.05, -12.75, 0.00, 260.38, 250.48
CTUN, 681, 0.00, 0.32, 0.000000, 0.00, 8, 107, 689, 0
GPS, 3, 327167800, 1796, 9, 2.34, 40.4435465, -79.9429649, 0.91, 288.84, 1.59, 231.55, -0.160000, 76445
ATT, 0.00, -5.14, -1.05, -7.06, 0.00, 259.23, 250.48
CTUN, 684, 0.00, 0.55, 0.000000, 0.00, 2, 124, 686, 0
ATT, 0.00, -1.96, -1.05, -4.50, 0.00, 257.19, 250.48
CTUN, 681, 0.00, 0.62, 0.000000, 0.00, 0, 136, 681, 0
GPS, 3, 327168000, 1796, 10, 1.79, 40.4435437, -79.9429707, 1.12, 288.97, 2.87, 236.17, -0.380000, 76645
ATT, 0.00, -0.19, -1.05, -2.87, 0.00, 255.02, 250.48
CTUN, 681, 0.00, 0.71, 0.000000, 0.00, 0, 147, 681, 0
ATT, 0.00, 0.33, -1.05, -0.74, 0.00, 253.03, 250.48
DU32, 7, 272761
CURR, 678, 30250, 1096, 1974, 5073, 346.9835
CTUN, 679, 0.00, 0.87, 0.000000, 0.00, 0, 157, 678, 0
GPS, 3, 327168200, 1796, 10, 1.79, 40.4435406, -79.9429771, 1.38, 289.16, 3.20, 237.40, -0.650000, 76845
ATT, 0.00, -0.09, -1.05, 0.62, 0.00, 251.27, 250.48
CTUN, 680, 0.00, 0.97, 0.000000, 0.00, 0, 165, 680, 0
ATT, 0.00, -0.97, -1.05, 1.57, 0.00, 249.82, 250.48
CTUN, 681, 0.00, 1.01, 0.000000, 0.00, 0, 171, 681, 0
GPS, 3, 327168400, 1796, 9, 2.34, 40.4435375, -79.9429835, 1.68, 289.42, 3.17, 237.76, -0.920000, 77045
ATT, 0.00, -2.17, -1.27, 1.99, 0.00, 248.63, 250.48
CTUN, 677, 0.00, 1.24, 0.000000, 0.00, 0, 175, 677, 0
ATT, 0.00, -2.63, -1.16, 1.77, 0.00, 247.83, 250.48
CTUN, 680, 0.00, 1.37, 0.000000, 0.00, 0, 181, 681, 0
GPS, 3, 327168600, 1796, 10, 1.79, 40.4435346, -79.9429894, 1.99, 289.71, 2.95, 237.80, -1.120000, 77245
ATT, 0.00, -2.31, -1.05, 1.37, 0.00, 247.46, 250.48
CTUN, 680, 0.00, 1.45, 0.000000, 0.00, 0, 187, 680, 0
ATT, 0.00, -1.55, -1.16, 1.17, 0.00, 247.34, 250.48
CTUN, 667, 0.00, 1.68, 0.000000, 0.00, 0, 195, 677, 0
GPS, 3, 327168800, 1796, 10, 1.79, 40.4435319, -79.9429948, 2.32, 290.02, 2.73, 237.39, -1.240000, 77445
ATT, 0.00, -0.68, -1.05, 0.80, 0.00, 247.29, 250.48
CTUN, 622, 0.00, 1.94, 0.000000, 0.00, 0, 199, 622, 0
ATT, 0.00, -0.52, -0.95, 0.30, 0.00, 247.38, 250.48
CTUN, 599, 0.00, 1.99, 0.000000, 0.00, 0, 196, 604, 0
GPS, 3, 327169000, 1796, 9, 2.34, 40.4435292, -79.9430001, 2.68, 290.38, 2.62, 236.67, -1.390000, 77645
ATT, 0.00, -0.53, -1.58, -0.01, 0.00, 247.50, 250.48
CTUN, 602, 0.00, 2.26, 0.000000, 0.00, 0, 188, 602, 0
ATT, 0.00, -0.74, 3.13, -0.02, 0.00, 247.70, 250.48
DU32, 7, 272761
CURR, 606, 36843, 1105, 1983, 5096, 352.4485
CTUN, 593, 0.00, 2.49, 0.000000, 0.00, 0, 178, 593, 0
GPS, 3, 327169200, 1796, 10, 1.79, 40.4435265, -79.9430050, 3.01, 290.77, 2.44, 235.65, -1.530000, 77845
ATT, -0.53, -0.81, 17.26, 1.52, 0.00, 247.92, 250.48
CTUN, 596, 0.00, 2.62, 0.000000, 0.00, 2, 168, 602, 0
ATT, -31.52, -0.74, 16.09, 6.68, 0.00, 248.21, 250.48
CTUN, 600, 0.00, 2.93, 0.000000, 0.00, 13, 161, 613, 0
GPS, 3, 327169400, 1796, 10, 1.79, 40.4435240, -79.9430100, 3.32, 291.12, 2.47, 235.68, -1.440000, 78045
ATT, -44.89, -8.71, 14.78, 13.22, 0.00, 248.50, 250.48
CTUN, 599, 0.00, 3.03, 0.000000, 0.00, 55, 147, 654, 0
ATT, -45.00, -24.28, 6.14, 16.79, 0.00, 248.54, 250.48
CTUN, 599, 0.00, 3.15, 0.000000, 0.00, 118, 128, 717, 0
GPS, 3, 327169600, 1796, 10, 1.79, 40.4435216, -79.9430143, 3.58, 291.42, 2.23, 234.71, -1.280000, 78245
ATT, -45.00, -35.50, 3.27, 15.13, 0.00, 249.87, 250.48
CTUN, 595, 0.00, 3.07, 0.000000, 0.00, 150, 111, 745, 0
ATT, -0.84, -39.78, -0.95, 10.55, 0.00, 252.56, 250.48
CTUN, 599, 0.00, 3.26, 0.000000, 0.00, 103, 101, 702, 0
GPS, 3, 327169800, 1796, 10, 1.79, 40.4435186, -79.9430171, 3.76, 291.68, 2.06, 225.87, -1.200000, 78445
ATT, 0.00, -32.02, -0.95, 4.34, 0.00, 255.05, 250.48
CTUN, 594, 0.00, 3.40, 0.000000, 0.00, 31, 102, 630, 0
ATT, 0.00, -17.77, -1.05, -0.82, 0.00, 254.84, 250.48
CTUN, 598, 0.00, 3.54, 0.000000, 0.00, 6, 109, 604, 0
GPS, 3, 327170000, 1796, 10, 1.79, 40.4435140, -79.9430186, 3.94, 291.87, 2.66, 208.21, -1.000000, 78645
ATT, 0.00, -6.98, -1.05, -2.88, 0.00, 252.77, 250.48
CTUN, 595, 0.00, 3.81, 0.000000, 0.00, 0, 109, 596, 0
ATT, 0.00, -0.13, -1.37, -3.12, 0.00, 250.75, 250.48
DU32, 7, 272761
CURR, 599, 43311, 1095, 1972, 5096, 357.9235
CTUN, 598, 0.00, 3.99, 0.000000, 0.00, 1, 106, 599, 0
GPS, 3, 327170200, 1796, 10, 1.79, 40.4435081, -79.9430199, 4.14, 292.05, 3.32, 197.83, -0.860000, 78845
ATT, 0.00, 3.44, -1.27, -2.44, 0.00, 249.28, 250.48
CTUN, 529, 0.00, 3.91, 0.000000, 0.00, 1, 102, 530, 0
ATT, 0.00, 5.15, 0.00, -1.50, 0.00, 248.20, 250.48
CTUN, 463, 0.00, 4.15, 0.000000, 0.00, 1, 89, 464, 0
GPS, 3, 327170400, 1796, 9, 2.34, 40.4435022, -79.9430212, 4.32, 292.21, 3.38, 194.42, -0.820000, 79046
ATT, 0.00, 5.65, -0.42, -0.61, 0.00, 247.45, 250.48
CTUN, 280, 0.00, 4.18, 0.000000, 0.00, 0, 63, 280, 0
ATT, 0.00, 5.33, -1.27, 1.02, 0.00, 246.93, 250.48
GPS, 3, 327170600, 1796, 9, 2.34, 40.4434969, -79.9430228, 4.42, 292.35, 3.04, 193.70, -0.680000, 79226
CTUN, 186, 0.00, 4.24, 0.000000, 0.00, 0, 22, 186, 0
ATT, 0.00, 4.01, -1.27, 3.29, 0.00, 246.44, 250.48
CTUN, 187, 0.00, 4.34, 0.000000, 0.00, 0, -29, 184, 0
ATT, 0.00, 2.64, -1.27, 5.54, 0.00, 246.07, 250.48
CTUN, 202, 0.00, 4.64, 0.000000, 0.00, 0, -89, 202, 0
GPS, 3, 327170800, 1796, 10, 1.79, 40.4434920, -79.9430243, 4.33, 292.36, 2.78, 193.09, -0.250000, 79445
ATT, 0.00, 2.58, -1.58, 7.06, 0.00, 245.79, 250.48
CTUN, 217, 0.00, 4.53, 0.000000, 0.00, 0, -150, 217, 0
ATT, 0.00, 4.25, -1.05, 7.26, 0.00, 245.74, 250.48
CTUN, 222, 0.00, 4.18, 0.000000, 0.00, 1, -208, 223, 0
GPS, 3, 327171000, 1796, 10, 1.79, 40.4434877, -79.9430257, 4.03, 292.21, 2.55, 193.76, 0.480000, 79645
ATT, 0.00, 6.80, -1.16, 7.18, 0.00, 246.09, 250.48
CTUN, 277, 0.00, 3.98, 0.000000, 0.00, 2, -265, 279, 0
ATT, 0.00, 9.40, -1.16, 6.96, 0.00, 246.73, 250.48
DU32, 7, 272761
CURR, 352, 46551, 1124, 2022, 5096, 363.5129
CTUN, 419, 0.00, 3.86, 0.000000, 0.00, 5, -319, 367, 0
GPS, 3, 327171200, 1796, 10, 1.79, 40.4434835, -79.9430272, 3.46, 291.81, 2.58, 195.88, 1.330000, 79845
ATT, 0.00, 10.36, -0.95, 5.22, 0.00, 247.43, 250.48
CTUN, 547, 0.00, 3.71, 0.000000, 0.00, 5, -363, 552, 0
ATT, 0.00, 7.81, -1.16, 2.32, 0.00, 248.14, 250.48
CTUN, 520, 0.00, 3.04, 0.000000, 0.00, 1, -385, 591, 0
GPS, 3, 327171400, 1796, 10, 1.79, 40.4434795, -79.9430286, 2.73, 291.20, 2.44, 197.13, 2.180000, 80046
ATT, 0.00, 3.70, -1.16, -2.03, 0.00, 248.58, 250.48
CTUN, 270, 0.00, 2.69, 0.000000, 0.00, 0, -398, 270, 0
ATT, 0.00, 0.55, -0.95, -6.01, 0.00, 248.75, 250.48
CTUN, 223, 0.00, 2.52, 0.000000, 0.00, 0, -423, 232, 0
GPS, 3, 327171600, 1796, 10, 1.79, 40.4434759, -79.9430297, 1.89, 290.41, 2.27, 198.13, 2.950000, 80246
ATT, 0.00, 0.44, -0.95, -6.71, 0.00, 248.65, 250.48
CTUN, 222, 0.00, 1.93, 0.000000, 0.00, 0, -457, 222, 0
ATT, 0.00, 1.63, -1.05, -4.68, 0.00, 248.69, 250.48
CTUN, 224, 0.00, 0.48, 0.000000, 0.00, 0, -492, 224, 0
GPS, 3, 327171800, 1796, 10, 1.79, 40.4434724, -79.9430311, 0.96, 289.56, 2.21, 199.21, 3.490000, 80446
ATT, 0.00, 0.67, -1.58, 0.22, 0.00, 249.16, 250.48
CTUN, 225, 0.00, -0.72, 0.000000, 0.00, 0, -408, 225, 0
ATT, 0.00, -4.39, -2.22, -3.50, 0.00, 250.74, 250.48
CTUN, 222, 0.00, -0.23, 0.000000, 0.00, 0, -439, 222, 0
GPS, 3, 327172000, 1796, 10, 1.79, 40.4434687, -79.9430329, -0.04, 288.80, 2.24, 199.35, 3.700000, 80646
ATT, 0.00, -1.59, -0.84, -0.77, 0.00, 250.47, 250.48
CTUN, 222, 0.00, -0.21, 0.000000, 0.00, 0, -422, 222, 0
ATT, 0.00, -1.48, -1.16, -0.52, 0.00, 250.22, 250.48
DU32, 7, 272761
CURR, 222, 49689, 1127, 2026, 5073, 369.0838
CTUN, 224, 0.00, -0.02, 0.000000, 0.00, 0, -421, 222, 0
GPS, 3, 327172200, 1796, 10, 1.79, 40.4434654, -79.9430391, -0.94, 287.52, 3.29, 219.96, 4.710000, 80845
ATT, 0.00, -1.50, -1.16, -0.47, 0.00, 250.10, 250.48
CTUN, 222, 0.00, 0.00, 0.000000, 0.00, 0, -421, 222, 0
ATT, 0.00, -1.50, -1.05, -0.90, 0.00, 250.01, 250.48
CTUN, 224, 0.00, 0.00, 0.000000, 0.00, 0, -421, 224, 0
GPS, 3, 327172400, 1796, 10, 1.79, 40.4434657, -79.9430413, -1.72, 286.76, 1.40, 231.05, 4.110000, 81046
ATT, 0.00, -1.49, -1.16, -1.38, 0.00, 249.90, 250.48
CTUN, 224, 0.00, 0.15, 0.000000, 0.00, 0, -419, 224, 0
ATT, 0.00, -1.24, -1.16, -1.17, 0.00, 249.78, 250.48
CTUN, 224, 0.00, 0.21, 0.000000, 0.00, 0, -418, 224, 0
GPS, 3, 327172600, 1796, 10, 1.79, 40.4434649, -79.9430420, -2.39, 287.32, 0.29, 231.05, 1.790000, 81246
ATT, 0.00, -0.95, -0.95, -0.87, 0.00, 249.68, 250.48
CTUN, 224, 0.00, 0.11, 0.000000, 0.00, 0, -415, 224, 0
ATT, 0.00, -0.91, -1.05, -0.68, 0.00, 249.58, 250.48
CTUN, 224, 0.00, 0.27, 0.000000, 0.00, 0, -413, 224, 0
GPS, 3, 327172800, 1796, 10, 1.79, 40.4434647, -79.9430423, -2.97, 287.43, 0.16, 231.05, 0.990000, 81446
ATT, 0.00, -0.88, -1.27, -0.50, 0.00, 249.47, 250.48
CTUN, 224, 0.00, 0.22, 0.000000, 0.00, 0, -409, 224, 0
ATT, 0.00, -0.89, -1.27, -0.48, 0.00, 249.38, 250.48
CTUN, 224, 0.00, 0.29, 0.000000, 0.00, 0, -407, 224, 0
GPS, 3, 327173000, 1796, 10, 1.79, 40.4434647, -79.9430425, -3.45, 287.43, 0.11, 231.05, 0.600000, 81646
ATT, 0.00, -0.92, -0.84, -0.47, 0.00, 249.29, 250.48
CTUN, 222, 0.00, 0.33, 0.000000, 0.00, 0, -403, 222, 0
ATT, 0.00, -0.92, -0.84, -0.46, 0.00, 249.21, 250.48
DU32, 7, 272761
CURR, 222, 51926, 1124, 2024, 5096, 374.7136
CTUN, 222, 0.00, 0.29, 0.000000, 0.00, 0, -398, 222, 0
GPS, 3, 327173200, 1796, 10, 1.79, 40.4434647, -79.9430427, -3.86, 287.43, 0.04, 231.05, 0.330000, 81846
ATT, 0.00, -0.92, -1.27, -0.45, 0.00, 249.10, 250.48
CTUN, 222, 0.00, 0.06, 0.000000, 0.00, 0, -395, 222, 0
ATT, 0.00, -0.93, -1.05, -0.47, 0.00, 249.02, 250.48
CTUN, 222, 0.00, 0.32, 0.000000, 0.00, 0, -390, 222, 0
GPS, 3, 327173400, 1796, 10, 1.79, 40.4434647, -79.9430426, -4.22, 287.43, 0.01, 231.05, 0.170000, 82046
ATT, 0.00, -0.94, -1.16, -0.47, 0.00, 248.93, 250.48
CTUN, 222, 0.00, 0.23, 0.000000, 0.00, 0, -385, 222, 0
ATT, 0.00, -0.95, -1.05, -0.48, 0.00, 248.84, 250.48
CTUN, 222, 0.00, 0.20, 0.000000, 0.00, 0, -379, 222, 0
GPS, 3, 327173600, 1796, 10, 1.79, 40.4434647, -79.9430427, -4.50, 287.37, 0.06, 231.05, 0.300000, 82246
ATT, 0.00, -0.94, -1.27, -0.47, 0.00, 248.77, 250.48
CTUN, 223, 0.00, 0.25, 0.000000, 0.00, 0, -375, 223, 0
ATT, 0.00, -0.95, -1.05, -0.47, 0.00, 248.66, 250.48
CTUN, 222, 0.00, 0.27, 0.000000, 0.00, 0, -369, 222, 0
GPS, 3, 327173800, 1796, 10, 1.79, 40.4434647, -79.9430427, -4.74, 287.39, 0.02, 231.05, 0.130000, 82446
ATT, 0.00, -0.97, -1.16, -0.47, 0.00, 248.58, 250.48
CTUN, 225, 0.00, 0.21, 0.000000, 0.00, 0, -364, 225, 0
ATT, 0.00, -0.95, -0.95, -0.47, 0.00, 248.50, 250.48
CTUN, 225, 0.00, 0.39, 0.000000, 0.00, 0, -360, 225, 0
GPS, 3, 327174000, 1796, 10, 1.79, 40.4434647, -79.9430428, -4.92, 287.42, 0.02, 231.05, 0.060000, 82646
ATT, 0.00, -0.92, -1.27, -0.46, 0.00, 248.42, 250.48
CTUN, 225, 0.00, 0.50, 0.000000, 0.00, 0, -353, 225, 0
ATT, 0.00, -0.92, -1.27, -0.47, 0.00, 248.33, 250.48
DU32, 7, 272761
CURR, 223, 54156, 1132, 2041, 5120, 380.3587
CTUN, 223, 0.00, 0.33, 0.000000, 0.00, 0, -346, 223, 0
GPS, 3, 327174200, 1796, 10, 1.79, 40.4434648, -79.9430429, -5.04, 287.44, 0.01, 231.05, 0.020000, 82846
ATT, 0.00, -0.91, -0.95, -0.47, 0.00, 248.26, 250.48
CTUN, 226, 0.00, 0.37, 0.000000, 0.00, 0, -339, 226, 0
ATT, 0.00, -0.90, -1.05, -0.47, 0.00, 248.17, 250.48
CTUN, 226, 0.00, 0.42, 0.000000, 0.00, 0, -333, 226, 0
GPS, 3, 327174400, 1796, 10, 1.79, 40.4434648, -79.9430429, -5.12, 287.46, 0.02, 231.05, 0.000000, 83046
ATT, 0.00, -0.90, -1.69, -0.48, 0.00, 248.10, 250.48
CTUN, 229, 0.00, 0.32, 0.000000, 0.00, 0, -327, 229, 0
ATT, 0.00, -0.89, -1.69, -0.49, 0.00, 248.00, 250.48
CTUN, 225, 0.00, 0.42, 0.000000, 0.00, 0, -321, 225, 0
GPS, 3, 327174600, 1796, 10, 1.79, 40.4434648, -79.9430430, -5.17, 287.49, 0.01, 231.05, -0.020000, 83246
ATT, 0.00, -0.90, -1.05, -0.50, 0.00, 247.93, 250.48
CTUN, 224, 0.00, 0.43, 0.000000, 0.00, 0, -313, 224, 0
ATT, 0.00, -0.88, -1.16, -0.48, 0.00, 247.85, 250.48
CTUN, 224, 0.00, 0.37, 0.000000, 0.00, 0, -306, 224, 0
GPS, 3, 327174800, 1796, 10, 1.79, 40.4434648, -79.9430431, -5.17, 287.52, 0.02, 231.05, -0.030000, 83446
ATT, 0.00, -0.88, -1.27, -0.49, 0.00, 247.77, 250.48
CTUN, 224, 0.00, 0.36, 0.000000, 0.00, 0, -300, 224, 0
ATT, 0.00, -0.86, -1.05, -0.48, 0.00, 247.69, 250.48
CTUN, 225, 0.00, 0.32, 0.000000, 0.00, 0, -293, 225, 0
GPS, 3, 327175000, 1796, 10, 1.79, 40.4434648, -79.9430432, -5.16, 287.55, 0.02, 231.05, -0.030000, 83646
ATT, 0.00, -0.87, -0.84, -0.51, 0.00, 247.62, 250.48
CTUN, 224, 0.00, 0.36, 0.000000, 0.00, 0, -286, 224, 0
ATT, 0.00, -0.86, -1.05, -0.50, 0.00, 247.54, 250.48
DU32, 7, 272761
CURR, 224, 56405, 1128, 2035, 5096, 386.0132
CTUN, 224, 0.00, 0.25, 0.000000, 0.00, 0, -279, 224, 0
GPS, 3, 327175200, 1796, 10, 1.79, 40.4434649, -79.9430433, -5.12, 287.57, 0.03, 231.05, -0.020000, 83846
ATT, 0.00, -0.86, -1.27, -0.51, 0.00, 247.47, 250.48
CTUN, 222, 0.00, 0.41, 0.000000, 0.00, 0, -272, 222, 0
ATT, 0.00, -0.84, -0.84, -0.50, 0.00, 247.39, 250.48
CTUN, 222, 0.00, 0.34, 0.000000, 0.00, 0, -266, 222, 0
GPS, 3, 327175400, 1796, 10, 1.79, 40.4434649, -79.9430434, -5.05, 287.60, 0.02, 231.05, -0.030000, 84046
ATT, 0.00, -0.84, -0.95, -0.51, 0.00, 247.33, 250.48
CTUN, 224, 0.00, 0.35, 0.000000, 0.00, 0, -259, 224, 0
ATT, 0.00, -0.84, -1.16, -0.50, 0.00, 247.25, 250.48
CTUN, 224, 0.00, 0.28, 0.000000, 0.00, 0, -252, 224, 0
GPS, 3, 327175600, 1796, 10, 1.79, 40.4434649, -79.9430435, -4.97, 287.63, 0.03, 231.05, -0.020000, 84247
ATT, 0.00, -0.83, -0.84, -0.49, 0.00, 247.17, 250.48
CTUN, 224, 0.00, 0.26, 0.000000, 0.00, 0, -246, 224, 0
ATT, 0.00, -0.83, -0.84, -0.50, 0.00, 247.10, 250.48
CTUN, 224, 0.00, 0.30, 0.000000, 0.00, 0, -239, 224, 0
GPS, 3, 327175800, 1796, 10, 1.79, 40.4434649, -79.9430436, -4.87, 287.66, 0.01, 231.05, -0.030000, 84446
ATT, 0.00, -0.81, -1.05, -0.51, 0.00, 247.01, 250.48
CTUN, 224, 0.00, 0.31, 0.000000, 0.00, 0, -232, 225, 0
ATT, 0.00, -0.82, -1.05, -0.50, 0.00, 246.93, 250.48
CTUN, 224, 0.00, 0.30, 0.000000, 0.00, 0, -225, 224, 0
GPS, 3, 327176000, 1796, 10, 1.79, 40.4434650, -79.9430437, -4.75, 287.69, 0.01, 231.05, -0.010000, 84646
ATT, 0.00, -0.81, -1.05, -0.50, 0.00, 246.86, 250.48
CTUN, 222, 0.00, 0.18, 0.000000, 0.00, 0, -219, 222, 0
ATT, 0.00, -0.80, -0.84, -0.50, 0.00, 246.78, 250.48
DU32, 7, 272761
CURR, 224, 58641, 1128, 2028, 5096, 391.6549
CTUN, 224, 0.00, 0.20, 0.000000, 0.00, 0, -213, 224, 0
GPS, 3, 327176200, 1796, 10, 1.79, 40.4434649, -79.9430438, -4.63, 287.72, 0.02, 231.05, -0.030000, 84846
ATT, 0.00, -0.80, -0.84, -0.50, 0.00, 246.71, 250.48
CTUN, 224, 0.00, 0.25, 0.000000, 0.00, 0, -206, 224, 0
ATT, 0.00, -0.80, -1.05, -0.50, 0.00, 246.64, 250.48
CTUN, 222, 0.00, 0.36, 0.000000, 0.00, 0, -200, 224, 0
GPS, 3, 327176400, 1796, 10, 1.79, 40.4434650, -79.9430438, -4.50, 287.74, 0.01, 231.05, 0.000000, 85046
ATT, 0.00, -0.79, -0.84, -0.50, 0.00, 246.57, 250.48
CTUN, 224, 0.00, 0.21, 0.000000, 0.00, 0, -193, 224, 0
ATT, 0.00, -0.78, -1.05, -0.50, 0.00, 246.49, 250.48
CTUN, 224, 0.00, 0.24, 0.000000, 0.00, 0, -187, 224, 0
GPS, 3, 327176600, 1796, 10, 1.79, 40.4434650, -79.9430439, -4.35, 287.78, 0.02, 231.05, -0.020000, 85247
ATT, 0.00, -0.78, -1.05, -0.49, 0.00, 246.44, 250.48
CTUN, 224, 0.00, 0.24, 0.000000, 0.00, 0, -180, 224, 0
ATT, 0.00, -0.77, -1.16, -0.51, 0.00, 246.37, 250.48
CTUN, 222, 0.00, 0.25, 0.000000, 0.00, 0, -173, 222, 0
GPS, 3, 327176800, 1796, 10, 1.79, 40.4434650, -79.9430440, -4.19, 287.81, 0.01, 231.05, -0.030000, 85447
ATT, 0.00, -0.77, -1.05, -0.51, 0.00, 246.29, 250.48
CTUN, 225, 0.00, 0.14, 0.000000, 0.00, 0, -166, 225, 0
ATT, 0.00, -0.76, -0.95, -0.51, 0.00, 246.21, 250.48
CTUN, 222, 0.00, 0.17, 0.000000, 0.00, 0, -160, 224, 0
GPS, 3, 327177000, 1796, 10, 1.79, 40.4434650, -79.9430440, -4.03, 287.84, 0.02, 231.05, -0.010000, 85647
ATT, 0.00, -0.76, -1.05, -0.50, 0.00, 246.14, 250.48
CTUN, 226, 0.00, 0.28, 0.000000, 0.00, 0, -153, 226, 0
ATT, 0.00, -0.76, -1.90, -0.52, 0.00, 246.09, 250.48
DU32, 7, 272761
CURR, 229, 60882, 1129, 2026, 5120, 397.3118
PM, 0, 0, 0, 1000, 10207, 0, 0, 0, 0
CTUN, 226, 0.00, 0.19, 0.000000, 0.00, 0, -146, 229, 0
GPS, 3, 327177200, 1796, 10, 1.79, 40.4434651, -79.9430441, -3.85, 287.86, 0.01, 231.05, 0.010000, 85846
ATT, 0.00, -0.75, -1.69, -0.52, 0.00, 246.01, 250.48
CTUN, 223, 0.00, 0.29, 0.000000, 0.00, 0, -140, 223, 0
ATT, 0.00, -0.74, -0.84, -0.52, 0.00, 245.94, 250.48
CTUN, 227, 0.00, 0.17, 0.000000, 0.00, 0, -134, 227, 0
GPS, 3, 327177400, 1796, 10, 1.79, 40.4434651, -79.9430441, -3.67, 287.90, 0.02, 231.05, -0.010000, 86047
ATT, 0.00, -0.72, -1.05, -0.50, 0.00, 245.88, 250.48
CTUN, 227, 0.00, 0.22, 0.000000, 0.00, 0, -127, 227, 0
ATT, 0.00, -0.73, -1.27, -0.51, 0.00, 245.83, 250.48
CTUN, 224, 0.00, 0.19, 0.000000, 0.00, 0, -121, 224, 0
GPS, 3, 327177600, 1796, 10, 1.79, 40.4434651, -79.9430442, -3.48, 287.94, 0.01, 231.05, -0.010000, 86247
ATT, 0.00, -0.73, -1.16, -0.52, 0.00, 245.77, 250.48
CTUN, 225, 0.00, 0.26, 0.000000, 0.00, 0, -115, 224, 0
ATT, 0.00, -0.72, -1.16, -0.51, 0.00, 245.72, 250.48
CTUN, 225, 0.00, 0.20, 0.000000, 0.00, 0, -108, 225, 0
GPS, 3, 327177800, 1796, 10, 1.79, 40.4434651, -79.9430442, -3.29, 287.97, 0.01, 231.05, 0.000000, 86447
ATT, 0.00, -0.72, -1.27, -0.50, 0.00, 245.63, 250.48
CTUN, 225, 0.00, 0.22, 0.000000, 0.00, 0, -102, 225, 0
ATT, 0.00, -0.70, -1.16, -0.52, 0.00, 245.56, 250.48
CTUN, 223, 0.00, 0.28, 0.000000, 0.00, 0, -96, 223, 0
GPS, 3, 327178000, 1796, 10, 1.79, 40.4434651, -79.9430443, -3.09, 287.99, 0.01, 231.05, 0.020000, 86647
ATT, 0.00, -0.69, -1.16, -0.50, 0.00, 245.52, 250.48
CTUN, 223, 0.00, 0.18, 0.000000, 0.00, 0, -90, 223, 0
ATT, 0.00, -0.70, -1.27, -0.51, 0.00, 245.45, 250.48
DU32, 7, 272761
CURR, 225, 63137, 1134, 2037, 5096, 402.9738
CTUN, 224, 0.00, 0.22, 0.000000, 0.00, 0, -84, 224, 0
GPS, 3, 327178200, 1796, 10, 1.79, 40.4434652, -79.9430443, -2.90, 288.02, 0.01, 231.05, 0.030000, 86846
ATT, 0.00, -0.69, -1.16, -0.52, 0.00, 245.39, 250.48
CTUN, 224, 0.00, 0.26, 0.000000, 0.00, 0, -79, 222, 0
ATT, 0.00, -0.68, -0.84, -0.51, 0.00, 245.35, 250.48
CTUN, 224, 0.00, 0.16, 0.000000, 0.00, 0, -74, 224, 0
GPS, 3, 327178400, 1796, 10, 1.79, 40.4434652, -79.9430444, -2.70, 288.05, 0.01, 231.05, 0.030000, 87047
ATT, 0.00, -0.68, -1.05, -0.50, 0.00, 245.28, 250.48
CTUN, 224, 0.00, 0.26, 0.000000, 0.00, 0, -68, 224, 0
ATT, 0.00, -0.68, -0.95, -0.50, 0.00, 245.21, 250.48
CTUN, 224, 0.00, 0.32, 0.000000, 0.00, 0, -63, 224, 0
GPS, 3, 327178600, 1796, 10, 1.79, 40.4434652, -79.9430444, -2.50, 288.07, 0.02, 231.05, 0.040000, 87246
ATT, 0.00, -0.67, -0.95, -0.50, 0.00, 245.15, 250.48
CTUN, 225, 0.00, 0.17, 0.000000, 0.00, 0, -58, 225, 0
ATT, 0.00, -0.67, -0.95, -0.50, 0.00, 245.10, 250.48
CTUN, 225, 0.00, 0.25, 0.000000, 0.00, 0, -52, 225, 0
GPS, 3, 327178800, 1796, 10, 1.79, 40.4434652, -79.9430444, -2.30, 288.09, 0.01, 231.05, 0.030000, 87447
ATT, 0.00, -0.67, -1.16, -0.50, 0.00, 245.03, 250.48
CTUN, 224, 0.00, 0.19, 0.000000, 0.00, 0, -47, 224, 0
ATT, 0.00, -0.66, -1.05, -0.50, 0.00, 244.98, 250.48
CTUN, 224, 0.00, 0.30, 0.000000, 0.00, 0, -43, 224, 0
GPS, 3, 327179000, 1796, 10, 1.79, 40.4434653, -79.9430444, -2.11, 288.12, 0.02, 231.05, 0.040000, 87647
ATT, 0.00, -0.66, -1.05, -0.50, 0.00, 244.90, 250.48
CTUN, 225, 0.00, 0.28, 0.000000, 0.00, 0, -36, 225, 0
ATT, 0.00, -0.64, -0.84, -0.50, 0.00, 244.85, 250.48
DU32, 7, 272761
CURR, 222, 65371, 1133, 2039, 5096, 408.6245
CTUN, 222, 0.00, 0.30, 0.000000, 0.00, 0, -31, 222, 0
GPS, 3, 327179200, 1796, 10, 1.79, 40.4434653, -79.9430445, -1.90, 288.15, 0.01, 231.05, 0.030000, 87847
ATT, 0.00, -0.65, -0.95, -0.51, 0.00, 244.79, 250.48
CTUN, 224, 0.00, 0.32, 0.000000, 0.00, 0, -27, 224, 0
ATT, 0.00, -0.65, -1.16, -0.51, 0.00, 244.74, 250.48
CTUN, 225, 0.00, 0.26, 0.000000, 0.00, 0, -22, 223, 0
GPS, 3, 327179400, 1796, 10, 1.79, 40.4434653, -79.9430445, -1.70, 288.17, 0.03, 231.05, 0.070000, 88047
ATT, 0.00, -0.64, -0.95, -0.51, 0.00, 244.68, 250.48
CTUN, 224, 0.00, 0.32, 0.000000, 0.00, 0, -17, 224, 0
ATT, 0.00, -0.64, -1.05, -0.51, 0.00, 244.63, 250.48
CTUN, 225, 0.00, 0.21, 0.000000, 0.00, 0, -12, 224, 0
GPS, 3, 327179600, 1796, 10, 1.79, 40.4434653, -79.9430446, -1.50, 288.20, 0.02, 231.05, 0.060000, 88247
ATT, 0.00, -0.64, -1.27, -0.50, 0.00, 244.57, 250.48
CTUN, 224, 0.00, 0.13, 0.000000, 0.00, 0, -9, 224, 0
ATT, 0.00, -0.62, -1.05, -0.49, 0.00, 244.51, 250.48
CTUN, 229, 0.00, 0.27, 0.000000, 0.00, 0, -4, 229, 0
GPS, 3, 327179800, 1796, 10, 1.79, 40.4434653, -79.9430447, -1.30, 288.24, 0.03, 231.05, 0.050000, 88466
ATT, 0.00, -0.61, -2.01, -0.49, 0.00, 244.45, 250.48
CTUN, 226, 0.00, 0.27, 0.000000, 0.00, 0, 0, 229, 0
ATT, 0.00, -0.60, -1.58, -0.49, 0.00, 244.39, 250.48
CTUN, 224, 0.00, 0.23, 0.000000, 0.00, 0, 3, 224, 0
ATT, 0.00, -0.61, -1.05, -0.49, 0.00, 244.32, 250.48
GPS, 3, 327180000, 1796, 10, 1.79, 40.4434653, -79.9430447, -1.10, 288.28, 0.02, 231.05, 0.070000, 88687
CTUN, 224, 0.00, 0.29, 0.000000, 0.00, 0, 8, 224, 0
ATT, 0.00, -0.60, -1.16, -0.50, 0.00, 244.27, 250.48
DU32, 7, 272761
CURR, 223, 67612, 1129, 2029, 5096, 414.2655
CTUN, 224, 0.00, 0.23, 0.000000, 0.00, 0, 11, 224, 0
GPS, 3, 327180200, 1796, 10, 1.79, 40.4434653, -79.9430448, -0.95, 288.31, 0.02, 231.05, 0.060000, 88848
ATT, 0.00, -0.60, -1.16, -0.49, 0.00, 244.21, 250.48
CTUN, 225, 0.00, 0.28, 0.000000, 0.00, 0, 15, 223, 0
ATT, 0.00, -0.59, -1.16, -0.49, 0.00, 244.17, 250.48
CTUN, 224, 0.00, 0.32, 0.000000, 0.00, 0, 18, 224, 0
GPS, 3, 327180400, 1796, 10, 1.79, 40.4434653, -79.9430449, -0.78, 288.35, 0.02, 231.05, 0.070000, 89047
ATT, 0.00, -0.59, -1.16, -0.49, 0.00, 244.12, 250.48
CTUN, 224, 0.00, 0.22, 0.000000, 0.00, 0, 21, 224, 0
ATT, 0.00, -0.58, -1.16, -0.50, 0.00, 244.08, 250.48
MODE, LOITER, 283
NTUN, 0.00, 0.00, 0.000000, 0.000000, 0.000000, 0.000000, 11.05324, -2.170779, 0.000000, 0.000000, -0.60, -0.50
CTUN, 224, 0.00, 0.17, -0.430000, 0.00, 0, 26, 220, -110
GPS, 3, 327180600, 1796, 10, 1.79, 40.4434653, -79.9430449, -0.61, 288.39, 0.03, 231.05, 0.070000, 89248
ATT, 0.00, -0.59, -1.16, -0.51, 0.00, 244.02, 250.48
NTUN, 0.00, 1.79, -0.044921, -0.001281, 11.00832, -2.172061, 10.13352, -2.267487, 0.000000, 0.000000, 0.00, 0.00
CTUN, 224, 0.00, 0.24, -0.430000, 0.00, 0, 29, 170, -110
ATT, 0.00, -0.59, -0.95, -0.49, 0.00, 243.97, 250.48
NTUN, 0.00, 3.47, 0.322876, -0.009887, 8.127617, -0.098031, 11.28372, -1.766093, -30.80700, 21.74029, -2.17, 0.35
CTUN, 224, 0.00, 0.38, -0.430000, 0.00, 0, 32, 130, -110
GPS, 3, 327180800, 1796, 10, 1.79, 40.4434652, -79.9430450, -0.45, 288.43, 0.02, 231.05, 0.070000, 89448
ATT, 0.00, -0.57, -1.16, -0.49, 0.00, 243.91, 250.48
NTUN, 0.00, 3.43, 0.417236, -0.032531, 5.161036, -0.032531, 11.52772, -1.981171, -34.66580, 1.655000, -1.86, -0.80
CTUN, 226, 0.00, 0.03, -0.430000, 0.00, 0, 35, 130, -108
ATT, 0.00, -0.57, -0.84, -0.50, 0.00, 243.87, 250.48
NTUN, 0.00, 0.05, 0.264282, -0.024658, 2.042654, -0.024658, 12.02892, -1.453012, -40.18383, 1.078735, -2.13, -0.97
CTUN, 224, 0.00, 0.25, -0.430000, 0.00, 0, 36, 130, -110
GPS, 3, 327181000, 1796, 10, 1.79, 40.4434652, -79.9430450, -0.28, 288.47, 0.02, 231.05, 0.060000, 89667
ATT, 0.00, -0.58, -1.05, -0.50, 0.00, 243.80, 250.48
NTUN, 0.00, 1.66, 0.024230, 0.021301, 0.024230, 0.021301, 12.25462, -1.304211, -32.18423, 1.459595, -1.72, -0.75
CTUN, 224, 0.00, 0.40, -0.430000, 0.00, 0, 39, 130, -110
ATT, 0.00, -0.56, -1.05, -0.51, 0.00, 243.74, 250.48
NTUN, 0.00, 1.73, -0.251098, 0.044189, -0.251098, 0.044189, 12.26888, -1.323187, -15.69931, 1.224394, -0.85, -0.34
DU32, 7, 272761
CURR, 130, 69430, 1128, 2028, 5120, 419.9017
CTUN, 225, 0.00, 0.20, -0.430000, 0.00, 0, 43, 130, -109
GPS, 3, 327181200, 1796, 10, 1.79, 40.4434652, -79.9430451, -0.12, 288.51, 0.02, 231.05, 0.060000, 89867
